{
  "data": {
    "stations": [
      {
        "name": "YouBike1.0_Xinghua Park",
        "short_name": "wsqqs6j3c",
        "lon": 121.483101,
        "rental_methods": ["KEY", "CREDITCARD"],
        "lat": 25.060125,
        "station_id": "NWT1008",
        "capacity": 10
      },
      {
        "name": "YouBike1.0_San chong Civil Sports Center",
        "short_name": "wsqqs910q",
        "lon": 121.488489,
        "rental_methods": ["KEY", "CREDITCARD"],
        "lat": 25.054391,
        "station_id": "NWT1009",
        "capacity": 10
      },
      {
        "name": "YouBike1.0_MRT Sanchong Sta. (Exit 3)",
        "short_name": "wsqqs3q3p",
        "lon": 121.484739,
        "rental_methods": ["KEY", "CREDITCARD"],
        "lat": 25.055883,
        "station_id": "NWT1010",
        "capacity": 10
      },
      {
        "name": "YouBike1.0_Hougang Park",
        "short_name": "wsqq75trm",
        "lon": 121.428348,
        "rental_methods": ["KEY", "CREDITCARD"],
        "lat": 25.025358,
        "station_id": "NWT1015",
        "capacity": 10
      },
      {
        "name": "YouBike1.0_Fuying Administration Center",
        "short_name": "wsqq75d0j",
        "lon": 121.42387,
        "rental_methods": ["KEY", "CREDITCARD"],
        "lat": 25.024125,
        "station_id": "NWT1016",
        "capacity": 10
      },
      {
        "name": "YouBike1.0_Xisheng Park",
        "short_name": "wsqq74jpn",
        "lon": 121.428048,
        "rental_methods": ["KEY", "CREDITCARD"],
        "lat": 25.017113,
        "station_id": "NWT1017",
        "capacity": 10
      },
      {
        "name": "YouBike1.0_Renai Square",
        "short_name": "wsqqspsgj",
        "lon": 121.471621,
        "rental_methods": ["KEY", "CREDITCARD"],
        "lat": 25.090565,
        "station_id": "NWT1019",
        "capacity": 10
      },
      {
        "name": "YouBike1.0_Chong Yang Elementary School",
        "short_name": "wsqqs7njq",
        "lon": 121.484337,
        "rental_methods": ["KEY", "CREDITCARD"],
        "lat": 25.066245,
        "station_id": "NWT1020",
        "capacity": 10
      },
      {
        "name": "YouBike1.0_San-Chung Commercial and Industrial Vocational High School",
        "short_name": "wsqqs7ee9",
        "lon": 121.480705,
        "rental_methods": ["KEY", "CREDITCARD"],
        "lat": 25.068681,
        "station_id": "NWT1022",
        "capacity": 10
      },
      {
        "name": "YouBike1.0_MRT Xinzhuang Sta. (Exit 1)",
        "short_name": "wsqq7twwn",
        "lon": 121.452069,
        "rental_methods": ["KEY", "CREDITCARD"],
        "lat": 25.036152,
        "station_id": "NWT1023",
        "capacity": 10
      },
      {
        "name": "YouBike1.0_Chong Yang Park",
        "short_name": "wsqqsqtwt",
        "lon": 121.483618,
        "rental_methods": ["KEY", "CREDITCARD"],
        "lat": 25.085688,
        "station_id": "NWT1032",
        "capacity": 10
      },
      {
        "name": "YouBike1.0_Zhung Yuan Park",
        "short_name": "wsqqeyr2c",
        "lon": 121.463894,
        "rental_methods": ["KEY", "CREDITCARD"],
        "lat": 25.083316,
        "station_id": "NWT1034",
        "capacity": 10
      },
      {
        "name": "YouBike1.0_Danfeng Police Substation",
        "short_name": "wsqq6u5ky",
        "lon": 121.414662,
        "rental_methods": ["KEY", "CREDITCARD"],
        "lat": 25.027694,
        "station_id": "NWT1035",
        "capacity": 10
      },
      {
        "name": "YouBike1.0_Xinzhuang Baseball Court",
        "short_name": "wsqq7wdmf",
        "lon": 121.446053,
        "rental_methods": ["KEY", "CREDITCARD"],
        "lat": 25.041603,
        "station_id": "NWT1038",
        "capacity": 10
      },
      {
        "name": "YouBike1.0_Xinzhuang Culture and Arts Center",
        "short_name": "wsqq7x9nh",
        "lon": 121.444453,
        "rental_methods": ["KEY", "CREDITCARD"],
        "lat": 25.04715,
        "station_id": "NWT1047",
        "capacity": 10
      },
      {
        "name": "YouBike1.0_Zhonghua & Zhongyuan Intersection",
        "short_name": "wsqqe8yrq",
        "lon": 121.451752,
        "rental_methods": ["KEY", "CREDITCARD"],
        "lat": 25.054232,
        "station_id": "NWT1048",
        "capacity": 10
      },
      {
        "name": "YouBike1.0_Fushou Park",
        "short_name": "wsqqebdc6",
        "lon": 121.457746,
        "rental_methods": ["KEY", "CREDITCARD"],
        "lat": 25.051829,
        "station_id": "NWT1050",
        "capacity": 10
      },
      {
        "name": "YouBike1.0_Kaiyuan Civic Activity Center",
        "short_name": "wsqqsghhq",
        "lon": 121.503557,
        "rental_methods": ["KEY", "CREDITCARD"],
        "lat": 25.066074,
        "station_id": "NWT1065",
        "capacity": 10
      },
      {
        "name": "YouBike1.0_Er Chong Elementary School",
        "short_name": "wsqqs717f",
        "lon": 121.477656,
        "rental_methods": ["KEY", "CREDITCARD"],
        "lat": 25.065976,
        "station_id": "NWT1067",
        "capacity": 10
      },
      {
        "name": "YouBike1.0_Er Chung Junior High School",
        "short_name": "wsqqs757u",
        "lon": 121.480465,
        "rental_methods": ["KEY", "CREDITCARD"],
        "lat": 25.065957,
        "station_id": "NWT1068",
        "capacity": 10
      },
      {
        "name": "YouBike1.0_Sanchong District office",
        "short_name": "wsqqsd1h2",
        "lon": 121.488229,
        "rental_methods": ["KEY", "CREDITCARD"],
        "lat": 25.060566,
        "station_id": "NWT1069",
        "capacity": 10
      },
      {
        "name": "YouBike1.0_New Taipei City Library Sanchong Branch",
        "short_name": "wsqqsenke",
        "lon": 121.495529,
        "rental_methods": ["KEY", "CREDITCARD"],
        "lat": 25.066099,
        "station_id": "NWT1070",
        "capacity": 10
      },
      {
        "name": "YouBike1.0_Sanzhang Park",
        "short_name": "wsqqsefyr",
        "lon": 121.490935,
        "rental_methods": ["KEY", "CREDITCARD"],
        "lat": 25.070507,
        "station_id": "NWT1071",
        "capacity": 10
      },
      {
        "name": "YouBike1.0_MRT Danfeng Sta. (Exit 1)",
        "short_name": "wsqq7h3ks",
        "lon": 121.422799,
        "rental_methods": ["KEY", "CREDITCARD"],
        "lat": 25.029032,
        "station_id": "NWT1072",
        "capacity": 10
      },
      {
        "name": "YouBike1.0_Zhonggang Elementary School",
        "short_name": "wsqq7x7td",
        "lon": 121.4478,
        "rental_methods": ["KEY", "CREDITCARD"],
        "lat": 25.045673,
        "station_id": "NWT1074",
        "capacity": 10
      },
      {
        "name": "YouBike1.0_Liuhe Park",
        "short_name": "wsqqseb83",
        "lon": 121.487588,
        "rental_methods": ["KEY", "CREDITCARD"],
        "lat": 25.069499,
        "station_id": "NWT1075",
        "capacity": 10
      },
      {
        "name": "YouBike1.0_Huangcheng Park",
        "short_name": "wsqqe8eut",
        "lon": 121.448239,
        "rental_methods": ["KEY", "CREDITCARD"],
        "lat": 25.052382,
        "station_id": "NWT1078",
        "capacity": 10
      },
      {
        "name": "YouBike1.0_MRT Cailiao Sta. (Exit 3)",
        "short_name": "wsqqsd5gv",
        "lon": 121.492198,
        "rental_methods": ["KEY", "CREDITCARD"],
        "lat": 25.060471,
        "station_id": "NWT1079",
        "capacity": 10
      },
      {
        "name": "YouBike1.0_MRT Sanhe Junior High School Sta.",
        "short_name": "wsqqssbtw",
        "lon": 121.487795,
        "rental_methods": ["KEY", "CREDITCARD"],
        "lat": 25.075881,
        "station_id": "NWT1080",
        "capacity": 10
      },
      {
        "name": "YouBike1.0_Siwei Park",
        "short_name": "wsqq74bzt",
        "lon": 121.422185,
        "rental_methods": ["KEY", "CREDITCARD"],
        "lat": 25.021308,
        "station_id": "NWT1082",
        "capacity": 10
      },
      {
        "name": "YouBike1.0_Helping Park",
        "short_name": "wsqqskp0q",
        "lon": 121.485712,
        "rental_methods": ["KEY", "CREDITCARD"],
        "lat": 25.070884,
        "station_id": "NWT1084",
        "capacity": 10
      },
      {
        "name": "YouBike1.0_Sanchong Sports Center",
        "short_name": "wsqqsd79x",
        "lon": 121.491926,
        "rental_methods": ["KEY", "CREDITCARD"],
        "lat": 25.061446,
        "station_id": "NWT1085",
        "capacity": 10
      },
      {
        "name": "YouBike1.0_Xinyi Park",
        "short_name": "wsqqsfbtn",
        "lon": 121.498749,
        "rental_methods": ["KEY", "CREDITCARD"],
        "lat": 25.064804,
        "station_id": "NWT1086",
        "capacity": 10
      },
      {
        "name": "YouBike1.0_Yongkang Park",
        "short_name": "wsqqeye4m",
        "lon": 121.45821,
        "rental_methods": ["KEY", "CREDITCARD"],
        "lat": 25.08492,
        "station_id": "NWT1090",
        "capacity": 10
      },
      {
        "name": "YouBike1.0_Touqian Sports Park",
        "short_name": "wsqqebw58",
        "lon": 121.462124,
        "rental_methods": ["KEY", "CREDITCARD"],
        "lat": 25.05218,
        "station_id": "NWT1091",
        "capacity": 10
      },
      {
        "name": "YouBike1.0_Touqian Junior High School",
        "short_name": "wsqqec5bz",
        "lon": 121.459318,
        "rental_methods": ["KEY", "CREDITCARD"],
        "lat": 25.054464,
        "station_id": "NWT1092",
        "capacity": 10
      },
      {
        "name": "YouBike1.0_Lian Bang Park",
        "short_name": "wsqqs6vdz",
        "lon": 121.48371,
        "rental_methods": ["KEY", "CREDITCARD"],
        "lat": 25.064447,
        "station_id": "NWT1094",
        "capacity": 10
      },
      {
        "name": "YouBike1.0_MRT Luzhou Sta.",
        "short_name": "wsqqezz3m",
        "lon": 121.464031,
        "rental_methods": ["KEY", "CREDITCARD"],
        "lat": 25.091637,
        "station_id": "NWT1095",
        "capacity": 10
      },
      {
        "name": "YouBike1.0_Ji Cheng Cheng Gong Intersection",
        "short_name": "wsqqs83pb",
        "lon": 121.488208,
        "rental_methods": ["KEY", "CREDITCARD"],
        "lat": 25.051542,
        "station_id": "NWT1096",
        "capacity": 10
      },
      {
        "name": "YouBike1.0_Banqiao Civil Sports Center",
        "short_name": "wsqq7g5jh",
        "lon": 121.458152,
        "rental_methods": ["KEY", "CREDITCARD"],
        "lat": 25.022235,
        "station_id": "NWT1097",
        "capacity": 10
      },
      {
        "name": "YouBike1.0_Yongan Park",
        "short_name": "wsqqk7960",
        "lon": 121.477572,
        "rental_methods": ["KEY", "CREDITCARD"],
        "lat": 25.024478,
        "station_id": "NWT1098",
        "capacity": 10
      },
      {
        "name": "YouBike1.0_MRT Jiangzicui Sta.(Exit 3)",
        "short_name": "wsqqkht2x",
        "lon": 121.472359,
        "rental_methods": ["KEY", "CREDITCARD"],
        "lat": 25.029729,
        "station_id": "NWT1099",
        "capacity": 10
      },
      {
        "name": "YouBike1.0_Yinyue Park",
        "short_name": "wsqqkk767",
        "lon": 121.48046,
        "rental_methods": ["KEY", "CREDITCARD"],
        "lat": 25.028631,
        "station_id": "NWT1100",
        "capacity": 10
      },
      {
        "name": "YouBike1.0_MRT Xinpu Sta.(Exit.2)",
        "short_name": "wsqqk54h2",
        "lon": 121.467598,
        "rental_methods": ["KEY", "CREDITCARD"],
        "lat": 25.022095,
        "station_id": "NWT1103",
        "capacity": 10
      },
      {
        "name": "YouBike1.0_New Taipei City Hospital Banqiao Branch",
        "short_name": "wsqq7g6y7",
        "lon": 121.457773,
        "rental_methods": ["KEY", "CREDITCARD"],
        "lat": 25.023832,
        "station_id": "NWT1104",
        "capacity": 10
      },
      {
        "name": "YouBike1.0_MRT Banqiao Sta.(Exit.3)",
        "short_name": "wsqq7cvcy",
        "lon": 121.462051,
        "rental_methods": ["KEY", "CREDITCARD"],
        "lat": 25.014797,
        "station_id": "NWT1105",
        "capacity": 10
      },
      {
        "name": "YouBike1.0_Minsheng Park",
        "short_name": "wsqqk32pc",
        "lon": 121.475894,
        "rental_methods": ["KEY", "CREDITCARD"],
        "lat": 25.013087,
        "station_id": "NWT1106",
        "capacity": 10
      },
      {
        "name": "YouBike1.0_MRT Banqiao Sta.(Exit.1)",
        "short_name": "wsqq7ctb7",
        "lon": 121.4619,
        "rental_methods": ["KEY", "CREDITCARD"],
        "lat": 25.013174,
        "station_id": "NWT1108",
        "capacity": 10
      },
      {
        "name": "YouBike1.0_Banqiao Land Office",
        "short_name": "wsqq7bwfn",
        "lon": 121.463387,
        "rental_methods": ["KEY", "CREDITCARD"],
        "lat": 25.007983,
        "station_id": "NWT1109",
        "capacity": 10
      },
      {
        "name": "YouBike1.0_Banqiao District Household Registration Office",
        "short_name": "wsqq7c3y3",
        "lon": 121.456308,
        "rental_methods": ["KEY", "CREDITCARD"],
        "lat": 25.012839,
        "station_id": "NWT1110",
        "capacity": 10
      },
      {
        "name": "YouBike1.0_Banqiao Heping Park",
        "short_name": "wsqq5yxw5",
        "lon": 121.464326,
        "rental_methods": ["KEY", "CREDITCARD"],
        "lat": 24.997679,
        "station_id": "NWT1111",
        "capacity": 10
      },
      {
        "name": "YouBike1.0_Bihua Park",
        "short_name": "wsqqsw27r",
        "lon": 121.487491,
        "rental_methods": ["KEY", "CREDITCARD"],
        "lat": 25.083741,
        "station_id": "NWT1112",
        "capacity": 10
      },
      {
        "name": "YouBike1.0_Tong An Park",
        "short_name": "wsqqsc8cm",
        "lon": 121.499067,
        "rental_methods": ["KEY", "CREDITCARD"],
        "lat": 25.05732,
        "station_id": "NWT1114",
        "capacity": 10
      },
      {
        "name": "YouBike1.0_Zhonghua Village (Zhonghua Rd. Sec. 2 )",
        "short_name": "wsqq7xrzj",
        "lon": 121.453766,
        "rental_methods": ["KEY", "CREDITCARD"],
        "lat": 25.045951,
        "station_id": "NWT1115",
        "capacity": 10
      },
      {
        "name": "YouBike1.0_Zhonghua & Zizhi Intersection",
        "short_name": "wsqq7xzd2",
        "lon": 121.453202,
        "rental_methods": ["KEY", "CREDITCARD"],
        "lat": 25.047855,
        "station_id": "NWT1116",
        "capacity": 10
      },
      {
        "name": "YouBike1.0_MRT Far Eastern Hospital Sta.(Exit.2)",
        "short_name": "wsqq5wwyu",
        "lon": 121.452315,
        "rental_methods": ["KEY", "CREDITCARD"],
        "lat": 24.99783,
        "station_id": "NWT1118",
        "capacity": 10
      },
      {
        "name": "YouBike1.0_Xintai Park",
        "short_name": "wsqq7tcs2",
        "lon": 121.444946,
        "rental_methods": ["KEY", "CREDITCARD"],
        "lat": 25.0372,
        "station_id": "NWT1119",
        "capacity": 10
      },
      {
        "name": "YouBike1.0_Jinan Park",
        "short_name": "wsqqswv0d",
        "lon": 121.493774,
        "rental_methods": ["KEY", "CREDITCARD"],
        "lat": 25.086031,
        "station_id": "NWT1121",
        "capacity": 10
      },
      {
        "name": "YouBike1.0_Ziqiang & Xiwei Intersection",
        "short_name": "wsqqst67j",
        "lon": 121.490157,
        "rental_methods": ["KEY", "CREDITCARD"],
        "lat": 25.07822,
        "station_id": "NWT1122",
        "capacity": 10
      },
      {
        "name": "YouBike1.0_MRT Sanchong Elementary School Sta.",
        "short_name": "wsqqseztb",
        "lon": 121.497126,
        "rental_methods": ["KEY", "CREDITCARD"],
        "lat": 25.070418,
        "station_id": "NWT1123",
        "capacity": 10
      },
      {
        "name": "YouBike1.0_New Taipei City Library",
        "short_name": "wsqq5z3hy",
        "lon": 121.455524,
        "rental_methods": ["KEY", "CREDITCARD"],
        "lat": 25.001583,
        "station_id": "NWT1127",
        "capacity": 10
      },
      {
        "name": "YouBike1.0_Yong Fu Elementary School",
        "short_name": "wsqqsm722",
        "lon": 121.480315,
        "rental_methods": ["KEY", "CREDITCARD"],
        "lat": 25.077714,
        "station_id": "NWT1128",
        "capacity": 10
      },
      {
        "name": "YouBike1.0_Mingzhi Elementary School",
        "short_name": "wsqq7p7vv",
        "lon": 121.426269,
        "rental_methods": ["KEY", "CREDITCARD"],
        "lat": 25.045729,
        "station_id": "NWT1129",
        "capacity": 10
      },
      {
        "name": "YouBike1.0_Luchou Sanmin Park",
        "short_name": "wsqqgbk8f",
        "lon": 121.460134,
        "rental_methods": ["KEY", "CREDITCARD"],
        "lat": 25.094306,
        "station_id": "NWT1130",
        "capacity": 10
      },
      {
        "name": "YouBike1.0_Taipei Hospital",
        "short_name": "wsqq7zh31",
        "lon": 121.459772,
        "rental_methods": ["KEY", "CREDITCARD"],
        "lat": 25.043536,
        "station_id": "NWT1131",
        "capacity": 10
      },
      {
        "name": "YouBike1.0_Chongxi & Chongan Intersection",
        "short_name": "wsqqs9f0h",
        "lon": 121.489751,
        "rental_methods": ["KEY", "CREDITCARD"],
        "lat": 25.058443,
        "station_id": "NWT1132",
        "capacity": 10
      },
      {
        "name": "YouBike1.0_Si Xian Elementary School",
        "short_name": "wsqq7zdf1",
        "lon": 121.457716,
        "rental_methods": ["KEY", "CREDITCARD"],
        "lat": 25.046446,
        "station_id": "NWT1134",
        "capacity": 10
      },
      {
        "name": "YouBike1.0_Zhuangjing Park",
        "short_name": "wsqqk4umg",
        "lon": 121.470821,
        "rental_methods": ["KEY", "CREDITCARD"],
        "lat": 25.020983,
        "station_id": "NWT1135",
        "capacity": 10
      },
      {
        "name": "YouBike1.0_Feng-Nian Elementary School",
        "short_name": "wsqq7sb3b",
        "lon": 121.44323,
        "rental_methods": ["KEY", "CREDITCARD"],
        "lat": 25.031278,
        "station_id": "NWT1136",
        "capacity": 10
      },
      {
        "name": "YouBike1.0_MRT Xinpu Sta.(Exit.4)",
        "short_name": "wsqqk56sq",
        "lon": 121.468559,
        "rental_methods": ["KEY", "CREDITCARD"],
        "lat": 25.023491,
        "station_id": "NWT1138",
        "capacity": 10
      },
      {
        "name": "YouBike1.0_Banqiao Renai Park",
        "short_name": "wsqq5ykqb",
        "lon": 121.459696,
        "rental_methods": ["KEY", "CREDITCARD"],
        "lat": 24.99643,
        "station_id": "NWT1139",
        "capacity": 10
      },
      {
        "name": "YouBike1.0_Taishan Elementary School",
        "short_name": "wsqqe4rww",
        "lon": 121.431475,
        "rental_methods": ["KEY", "CREDITCARD"],
        "lat": 25.062345,
        "station_id": "NWT1140",
        "capacity": 10
      },
      {
        "name": "YouBike1.0_Xianmin Blvd & Minzu Intersection",
        "short_name": "wsqq7bvmb",
        "lon": 121.461097,
        "rental_methods": ["KEY", "CREDITCARD"],
        "lat": 25.010012,
        "station_id": "NWT1141",
        "capacity": 10
      },
      {
        "name": "YouBike1.0_Guangfu Park",
        "short_name": "wsqq5vwdf",
        "lon": 121.462872,
        "rental_methods": ["KEY", "CREDITCARD"],
        "lat": 24.991643,
        "station_id": "NWT1143",
        "capacity": 10
      },
      {
        "name": "YouBike1.0_Banqiao Siwei Park",
        "short_name": "wsqq7gwru",
        "lon": 121.462633,
        "rental_methods": ["KEY", "CREDITCARD"],
        "lat": 25.025464,
        "station_id": "NWT1144",
        "capacity": 10
      },
      {
        "name": "YouBike1.0_MRT Dingpu Sta.(Exit.2)",
        "short_name": "wsqmfzww7",
        "lon": 121.419008,
        "rental_methods": ["KEY", "CREDITCARD"],
        "lat": 24.959276,
        "station_id": "NWT1145",
        "capacity": 10
      },
      {
        "name": "YouBike1.0_Longmen & Longbin Intersection",
        "short_name": "wsqqsu6r9",
        "lon": 121.500977,
        "rental_methods": ["KEY", "CREDITCARD"],
        "lat": 25.073475,
        "station_id": "NWT1146",
        "capacity": 10
      },
      {
        "name": "YouBike1.0_Jincheng & Zhongyi Intersection",
        "short_name": "wsqq53w3r",
        "lon": 121.440808,
        "rental_methods": ["KEY", "CREDITCARD"],
        "lat": 24.969399,
        "station_id": "NWT1148",
        "capacity": 10
      },
      {
        "name": "YouBike1.0_Huade Park",
        "short_name": "wsqq5txe5",
        "lon": 121.45332,
        "rental_methods": ["KEY", "CREDITCARD"],
        "lat": 24.991683,
        "station_id": "NWT1149",
        "capacity": 10
      },
      {
        "name": "YouBike1.0_Zhong Shan Junior High School",
        "short_name": "wsqqk43zw",
        "lon": 121.467509,
        "rental_methods": ["KEY", "CREDITCARD"],
        "lat": 25.018559,
        "station_id": "NWT1151",
        "capacity": 10
      },
      {
        "name": "YouBike1.0_MRT Tucheng Sta.(Exit 2)",
        "short_name": "wsqq5d0s0",
        "lon": 121.443563,
        "rental_methods": ["KEY", "CREDITCARD"],
        "lat": 24.972631,
        "station_id": "NWT1152",
        "capacity": 10
      },
      {
        "name": "YouBike1.0_Sichuan & Yuandong Intersection",
        "short_name": "wsqq5ydxc",
        "lon": 121.457355,
        "rental_methods": ["KEY", "CREDITCARD"],
        "lat": 24.998003,
        "station_id": "NWT1153",
        "capacity": 10
      },
      {
        "name": "YouBike1.0_Yuanlin Community Park",
        "short_name": "wsqq5e068",
        "lon": 121.443237,
        "rental_methods": ["KEY", "CREDITCARD"],
        "lat": 24.977883,
        "station_id": "NWT1154",
        "capacity": 10
      },
      {
        "name": "YouBike1.0_Xinshu Park",
        "short_name": "wsqq5r8zm",
        "lon": 121.433154,
        "rental_methods": ["KEY", "CREDITCARD"],
        "lat": 25.003383,
        "station_id": "NWT1159",
        "capacity": 10
      },
      {
        "name": "YouBike1.0_Houde Park",
        "short_name": "wsqqss5ny",
        "lon": 121.4912,
        "rental_methods": ["KEY", "CREDITCARD"],
        "lat": 25.071988,
        "station_id": "NWT1162",
        "capacity": 10
      },
      {
        "name": "YouBike1.0_Banqiao Xinyi Park",
        "short_name": "wsqq5y3vm",
        "lon": 121.456476,
        "rental_methods": ["KEY", "CREDITCARD"],
        "lat": 24.996183,
        "station_id": "NWT1163",
        "capacity": 10
      },
      {
        "name": "YouBike1.0_Minsheng & Changjiang Intersection",
        "short_name": "wsqq7uxpd",
        "lon": 121.463596,
        "rental_methods": ["KEY", "CREDITCARD"],
        "lat": 25.030904,
        "station_id": "NWT1165",
        "capacity": 10
      },
      {
        "name": "YouBike1.0_Fujhou Appropriate House ( He-an 1st. Road )",
        "short_name": "wsqq5wfx8",
        "lon": 121.446343,
        "rental_methods": ["KEY", "CREDITCARD"],
        "lat": 24.999329,
        "station_id": "NWT1167",
        "capacity": 10
      },
      {
        "name": "YouBike1.0_Jianfu Park",
        "short_name": "wsqq7hhhy",
        "lon": 121.426685,
        "rental_methods": ["KEY", "CREDITCARD"],
        "lat": 25.027694,
        "station_id": "NWT1168",
        "capacity": 10
      },
      {
        "name": "YouBike1.0_Shuei He Village Activity Center",
        "short_name": "wsqqu0nwg",
        "lon": 121.473913,
        "rental_methods": ["KEY", "CREDITCARD"],
        "lat": 25.093949,
        "station_id": "NWT1169",
        "capacity": 10
      },
      {
        "name": "YouBike1.0_Guoguang Park",
        "short_name": "wsqq7dxzp",
        "lon": 121.453852,
        "rental_methods": ["KEY", "CREDITCARD"],
        "lat": 25.019828,
        "station_id": "NWT1171",
        "capacity": 10
      },
      {
        "name": "YouBike1.0_Shulin Railway Rear Station",
        "short_name": "wsqq5jf8p",
        "lon": 121.424652,
        "rental_methods": ["KEY", "CREDITCARD"],
        "lat": 24.992553,
        "station_id": "NWT1172",
        "capacity": 10
      },
      {
        "name": "YouBike1.0_Wenlin Elementary School",
        "short_name": "wsqq5nezp",
        "lon": 121.42636,
        "rental_methods": ["KEY", "CREDITCARD"],
        "lat": 24.997856,
        "station_id": "NWT1173",
        "capacity": 10
      },
      {
        "name": "YouBike1.0_Tucheng Sports Field",
        "short_name": "wsqq5u0k2",
        "lon": 121.454211,
        "rental_methods": ["KEY", "CREDITCARD"],
        "lat": 24.983671,
        "station_id": "NWT1174",
        "capacity": 10
      },
      {
        "name": "YouBike1.0_Banqiao Fude Park",
        "short_name": "wsqqk11ye",
        "lon": 121.467415,
        "rental_methods": ["KEY", "CREDITCARD"],
        "lat": 25.011498,
        "station_id": "NWT1175",
        "capacity": 10
      },
      {
        "name": "YouBike1.0_Guanghua Park",
        "short_name": "wsqq6b475",
        "lon": 121.413157,
        "rental_methods": ["KEY", "CREDITCARD"],
        "lat": 25.005412,
        "station_id": "NWT1176",
        "capacity": 10
      },
      {
        "name": "YouBike1.0_Shulin Da'an Activity Center",
        "short_name": "wsqq4ues3",
        "lon": 121.41477,
        "rental_methods": ["KEY", "CREDITCARD"],
        "lat": 24.986391,
        "station_id": "NWT1177",
        "capacity": 10
      },
      {
        "name": "YouBike1.0_Sanmin & Zhongshan 1st Rd. Intersection",
        "short_name": "wsqqsq04s",
        "lon": 121.476004,
        "rental_methods": ["KEY", "CREDITCARD"],
        "lat": 25.082229,
        "station_id": "NWT1178",
        "capacity": 10
      },
      {
        "name": "YouBike1.0_Yixue Elementary School",
        "short_name": "wsqqe0xc4",
        "lon": 121.431669,
        "rental_methods": ["KEY", "CREDITCARD"],
        "lat": 25.051762,
        "station_id": "NWT1179",
        "capacity": 10
      },
      {
        "name": "YouBike1.0_Natural Park",
        "short_name": "wsqqsx2yg",
        "lon": 121.487987,
        "rental_methods": ["KEY", "CREDITCARD"],
        "lat": 25.08984,
        "station_id": "NWT1180",
        "capacity": 10
      },
      {
        "name": "YouBike1.0_Banlin & Xibei Intersection",
        "short_name": "wsqq5j7ux",
        "lon": 121.42635,
        "rental_methods": ["KEY", "CREDITCARD"],
        "lat": 24.990555,
        "station_id": "NWT1181",
        "capacity": 10
      },
      {
        "name": "YouBike1.0_New Taipei City Art Center",
        "short_name": "wsqqk5vqj",
        "lon": 121.472279,
        "rental_methods": ["KEY", "CREDITCARD"],
        "lat": 25.026542,
        "station_id": "NWT1182",
        "capacity": 10
      },
      {
        "name": "YouBike1.0_Tongxing Park",
        "short_name": "wsqqe30jj",
        "lon": 121.432128,
        "rental_methods": ["KEY", "CREDITCARD"],
        "lat": 25.055188,
        "station_id": "NWT1186",
        "capacity": 10
      },
      {
        "name": "YouBike1.0_Xizhou Park",
        "short_name": "wsqq5hsq1",
        "lon": 121.42682,
        "rental_methods": ["KEY", "CREDITCARD"],
        "lat": 24.986723,
        "station_id": "NWT1188",
        "capacity": 10
      },
      {
        "name": "YouBike1.0_Kunlun Park",
        "short_name": "wsqq5jym5",
        "lon": 121.429636,
        "rental_methods": ["KEY", "CREDITCARD"],
        "lat": 24.993406,
        "station_id": "NWT1189",
        "capacity": 10
      },
      {
        "name": "YouBike1.0_MRT Haishan Sta.(Exit 3)",
        "short_name": "wsqq5ssxq",
        "lon": 121.449335,
        "rental_methods": ["KEY", "CREDITCARD"],
        "lat": 24.986923,
        "station_id": "NWT1190",
        "capacity": 10
      },
      {
        "name": "YouBike1.0_Xinhua Park",
        "short_name": "wsqqefvr9",
        "lon": 121.461115,
        "rental_methods": ["KEY", "CREDITCARD"],
        "lat": 25.065234,
        "station_id": "NWT1191",
        "capacity": 10
      },
      {
        "name": "YouBike1.0_Xi Sheng Guan",
        "short_name": "wsqq7328g",
        "lon": 121.432713,
        "rental_methods": ["KEY", "CREDITCARD"],
        "lat": 25.011905,
        "station_id": "NWT1193",
        "capacity": 10
      },
      {
        "name": "YouBike1.0_Yongfeng  Park Activity Center",
        "short_name": "wsqqk6bwx",
        "lon": 121.476853,
        "rental_methods": ["KEY", "CREDITCARD"],
        "lat": 25.021127,
        "station_id": "NWT1196",
        "capacity": 10
      },
      {
        "name": "YouBike1.0_Yiren civil activity center",
        "short_name": "wsqqe0kct",
        "lon": 121.427667,
        "rental_methods": ["KEY", "CREDITCARD"],
        "lat": 25.050479,
        "station_id": "NWT1197",
        "capacity": 10
      },
      {
        "name": "YouBike1.0_Yingge Junior High School",
        "short_name": "wsqmcnr4r",
        "lon": 121.342963,
        "rental_methods": ["KEY", "CREDITCARD"],
        "lat": 24.951734,
        "station_id": "NWT1198",
        "capacity": 10
      },
      {
        "name": "YouBike1.0_MRT Huilong Sta.(Exit 3)",
        "short_name": "wsqq6g621",
        "lon": 121.413053,
        "rental_methods": ["KEY", "CREDITCARD"],
        "lat": 25.02276,
        "station_id": "NWT1199",
        "capacity": 10
      },
      {
        "name": "YouBike1.0_MRT Xianse Temple Sta.(Exit.2)",
        "short_name": "wsqqkpkrz",
        "lon": 121.470987,
        "rental_methods": ["KEY", "CREDITCARD"],
        "lat": 25.046068,
        "station_id": "NWT1200",
        "capacity": 10
      },
      {
        "name": "YouBike1.0_Yingge Railway Station(Ren\u2019ai  Rd.)",
        "short_name": "wsqmcrp8c",
        "lon": 121.354376,
        "rental_methods": ["KEY", "CREDITCARD"],
        "lat": 24.955591,
        "station_id": "NWT1201",
        "capacity": 10
      },
      {
        "name": "YouBike1.0_Litai Village(Zhonghuan Rd. Sec. 2)",
        "short_name": "wsqq7rrmw",
        "lon": 121.442133,
        "rental_methods": ["KEY", "CREDITCARD"],
        "lat": 25.045676,
        "station_id": "NWT1204",
        "capacity": 10
      },
      {
        "name": "YouBike1.0_New Taipei City Yingge Ceramics  Museum",
        "short_name": "wsqmcmymt",
        "lon": 121.352832,
        "rental_methods": ["KEY", "CREDITCARD"],
        "lat": 24.949549,
        "station_id": "NWT1206",
        "capacity": 10
      },
      {
        "name": "YouBike1.0_Fuzhou Apartment(Lequn Rd.)",
        "short_name": "wsqq5wddh",
        "lon": 121.4465092,
        "rental_methods": ["KEY", "CREDITCARD"],
        "lat": 24.9969909,
        "station_id": "NWT1207",
        "capacity": 10
      },
      {
        "name": "YouBike1.0_Jianshan Park",
        "short_name": "wsqmcm9mc",
        "lon": 121.345767,
        "rental_methods": ["KEY", "CREDITCARD"],
        "lat": 24.94822,
        "station_id": "NWT1208",
        "capacity": 10
      },
      {
        "name": "YouBike1.0_Shulin District Public Health Center",
        "short_name": "wsqq4u5sz",
        "lon": 121.415032,
        "rental_methods": ["KEY", "CREDITCARD"],
        "lat": 24.983768,
        "station_id": "NWT1210",
        "capacity": 10
      },
      {
        "name": "YouBike1.0_Si Cian Park",
        "short_name": "wsqqsm8m2",
        "lon": 121.476205,
        "rental_methods": ["KEY", "CREDITCARD"],
        "lat": 25.079969,
        "station_id": "NWT1211",
        "capacity": 10
      },
      {
        "name": "YouBike1.0_Yude Elementary School",
        "short_name": "wsqq43g2s",
        "lon": 121.392602,
        "rental_methods": ["KEY", "CREDITCARD"],
        "lat": 24.970656,
        "station_id": "NWT1212",
        "capacity": 10
      },
      {
        "name": "YouBike1.0_Pengfu Elementary School",
        "short_name": "wsqq5598g",
        "lon": 121.423104,
        "rental_methods": ["KEY", "CREDITCARD"],
        "lat": 24.980335,
        "station_id": "NWT1213",
        "capacity": 10
      },
      {
        "name": "YouBike1.0_Everlight Electronics Co.,Ltd (Shulin Senior High School)",
        "short_name": "wsqq5h1gy",
        "lon": 121.423601,
        "rental_methods": ["KEY", "CREDITCARD"],
        "lat": 24.983567,
        "station_id": "NWT1215",
        "capacity": 10
      },
      {
        "name": "YouBike1.0_MRT Yungning Sta.(EXIT 2)",
        "short_name": "wsqq52ghj",
        "lon": 121.436227,
        "rental_methods": ["KEY", "CREDITCARD"],
        "lat": 24.965783,
        "station_id": "NWT1216",
        "capacity": 10
      },
      {
        "name": "YouBike1.0_New Taipei City Library Yingge Branch",
        "short_name": "wsqmcrk4j",
        "lon": 121.349704,
        "rental_methods": ["KEY", "CREDITCARD"],
        "lat": 24.957195,
        "station_id": "NWT1220",
        "capacity": 10
      },
      {
        "name": "YouBike1.0_De-Yin Elementary School",
        "short_name": "wsqqek4u0",
        "lon": 121.43567,
        "rental_methods": ["KEY", "CREDITCARD"],
        "lat": 25.071515,
        "station_id": "NWT1221",
        "capacity": 10
      },
      {
        "name": "YouBike1.0_Jincheng Parking Lot",
        "short_name": "wsqq5u5qy",
        "lon": 121.458595,
        "rental_methods": ["KEY", "CREDITCARD"],
        "lat": 24.984102,
        "station_id": "NWT1224",
        "capacity": 10
      },
      {
        "name": "YouBike1.0_Xianse Temple",
        "short_name": "wsqqs22ju",
        "lon": 121.476007,
        "rental_methods": ["KEY", "CREDITCARD"],
        "lat": 25.05119,
        "station_id": "NWT1225",
        "capacity": 10
      },
      {
        "name": "YouBike1.0_Banqiao First Stadium",
        "short_name": "wsqqk0f83",
        "lon": 121.468352,
        "rental_methods": ["KEY", "CREDITCARD"],
        "lat": 25.009061,
        "station_id": "NWT1226",
        "capacity": 10
      },
      {
        "name": "YouBike1.0_Guangxing Elementary School",
        "short_name": "wsqqsf1ej",
        "lon": 121.500103,
        "rental_methods": ["KEY", "CREDITCARD"],
        "lat": 25.060339,
        "station_id": "NWT1227",
        "capacity": 10
      },
      {
        "name": "YouBike1.0_Crescent Bridge",
        "short_name": "wsqq7svpw",
        "lon": 121.450011,
        "rental_methods": ["KEY", "CREDITCARD"],
        "lat": 25.0323,
        "station_id": "NWT1230",
        "capacity": 10
      },
      {
        "name": "YouBike1.0_Sioude Elementary School",
        "short_name": "wsqqsdfxu",
        "lon": 121.49045,
        "rental_methods": ["KEY", "CREDITCARD"],
        "lat": 25.065295,
        "station_id": "NWT1231",
        "capacity": 10
      },
      {
        "name": "YouBike1.0_Yamugang Pumping Station",
        "short_name": "wsqqey4nd",
        "lon": 121.456728,
        "rental_methods": ["KEY", "CREDITCARD"],
        "lat": 25.082935,
        "station_id": "NWT1234",
        "capacity": 10
      },
      {
        "name": "YouBike1.0_MRT Tamsui Station",
        "short_name": "wsqr5tbgn",
        "lon": 121.444183,
        "rental_methods": ["KEY", "CREDITCARD"],
        "lat": 25.168826,
        "station_id": "NWT1235",
        "capacity": 10
      },
      {
        "name": "YouBike1.0_Longmen Park",
        "short_name": "wsqqsu8rr",
        "lon": 121.498484,
        "rental_methods": ["KEY", "CREDITCARD"],
        "lat": 25.074815,
        "station_id": "NWT1239",
        "capacity": 10
      },
      {
        "name": "YouBike1.0_Yong-an Library",
        "short_name": "wsqqevqj7",
        "lon": 121.462228,
        "rental_methods": ["KEY", "CREDITCARD"],
        "lat": 25.078599,
        "station_id": "NWT1241",
        "capacity": 10
      },
      {
        "name": "YouBike1.0_XiSheng Square",
        "short_name": "wsqq5pr8y",
        "lon": 121.431485,
        "rental_methods": ["KEY", "CREDITCARD"],
        "lat": 25.000894,
        "station_id": "NWT1242",
        "capacity": 10
      },
      {
        "name": "YouBike1.0_Sanxia District Office(Sanxia Old Street)",
        "short_name": "wsqmcg4k4",
        "lon": 121.369158,
        "rental_methods": ["KEY", "CREDITCARD"],
        "lat": 24.934187,
        "station_id": "NWT1243",
        "capacity": 10
      },
      {
        "name": "YouBike1.0_Ren-ai & Wenhua 2nd Rd. Intersection",
        "short_name": "wsqq9vnhc",
        "lon": 121.374258,
        "rental_methods": ["KEY", "CREDITCARD"],
        "lat": 25.077118,
        "station_id": "NWT1244",
        "capacity": 10
      },
      {
        "name": "YouBike1.0_Kunlun Square",
        "short_name": "wsqq5q08p",
        "lon": 121.43288,
        "rental_methods": ["KEY", "CREDITCARD"],
        "lat": 24.993901,
        "station_id": "NWT1245",
        "capacity": 10
      },
      {
        "name": "YouBike1.0_YongSheng Park",
        "short_name": "wsqqskypj",
        "lon": 121.484304,
        "rental_methods": ["KEY", "CREDITCARD"],
        "lat": 25.076133,
        "station_id": "NWT1246",
        "capacity": 10
      },
      {
        "name": "YouBike1.0_Lu Jiang square",
        "short_name": "wsqqsq9q7",
        "lon": 121.477694,
        "rental_methods": ["KEY", "CREDITCARD"],
        "lat": 25.085621,
        "station_id": "NWT1247",
        "capacity": 10
      },
      {
        "name": "YouBike1.0_Liuzhang Park",
        "short_name": "wsqqsev32",
        "lon": 121.494048,
        "rental_methods": ["KEY", "CREDITCARD"],
        "lat": 25.069661,
        "station_id": "NWT1248",
        "capacity": 10
      },
      {
        "name": "YouBike1.0_Chungshan & Chalin Intersection",
        "short_name": "wsqqdjw71",
        "lon": 121.385587,
        "rental_methods": ["KEY", "CREDITCARD"],
        "lat": 25.079592,
        "station_id": "NWT1249",
        "capacity": 10
      },
      {
        "name": "YouBike1.0_National Taipei University(Sanxia Campus)",
        "short_name": "wsqmcvjq3",
        "lon": 121.37326,
        "rental_methods": ["KEY", "CREDITCARD"],
        "lat": 24.945553,
        "station_id": "NWT1250",
        "capacity": 10
      },
      {
        "name": "YouBike1.0_Linkou District Office",
        "short_name": "wsqqdm04t",
        "lon": 121.388181,
        "rental_methods": ["KEY", "CREDITCARD"],
        "lat": 25.076742,
        "station_id": "NWT1251",
        "capacity": 10
      },
      {
        "name": "YouBike1.0_Xinliyuan Community",
        "short_name": "wsqq9gzvy",
        "lon": 121.376882,
        "rental_methods": ["KEY", "CREDITCARD"],
        "lat": 25.070428,
        "station_id": "NWT1252",
        "capacity": 10
      },
      {
        "name": "YouBike1.0_Zhongzheng & Fuguo Intersection",
        "short_name": "wsqq6gvdt",
        "lon": 121.417694,
        "rental_methods": ["KEY", "CREDITCARD"],
        "lat": 25.02594,
        "station_id": "NWT1253",
        "capacity": 10
      },
      {
        "name": "YouBike1.0_Datong Elementary School",
        "short_name": "wsqq4gtj9",
        "lon": 121.416844,
        "rental_methods": ["KEY", "CREDITCARD"],
        "lat": 24.981146,
        "station_id": "NWT1254",
        "capacity": 10
      },
      {
        "name": "YouBike1.0_New Taipei City Library Wugu-Chenggong Branch",
        "short_name": "wsqqg86gd",
        "lon": 121.446741,
        "rental_methods": ["KEY", "CREDITCARD"],
        "lat": 25.094784,
        "station_id": "NWT1255",
        "capacity": 10
      },
      {
        "name": "YouBike1.0_LiLin Market",
        "short_name": "wsqq9g9q1",
        "lon": 121.367761,
        "rental_methods": ["KEY", "CREDITCARD"],
        "lat": 25.069123,
        "station_id": "NWT1257",
        "capacity": 10
      },
      {
        "name": "YouBike1.0_Shulin South Station",
        "short_name": "wsqq4ex03",
        "lon": 121.408605,
        "rental_methods": ["KEY", "CREDITCARD"],
        "lat": 24.980236,
        "station_id": "NWT1258",
        "capacity": 10
      },
      {
        "name": "YouBike1.0_New Taipei Municipal Yinggle Vocational High School",
        "short_name": "wsqmch10y",
        "lon": 121.334639,
        "rental_methods": ["KEY", "CREDITCARD"],
        "lat": 24.939095,
        "station_id": "NWT1259",
        "capacity": 10
      },
      {
        "name": "YouBike1.0_Xinzhuang Joint Office Tower, Executive Yuan",
        "short_name": "wsqqe931s",
        "lon": 121.444423,
        "rental_methods": ["KEY", "CREDITCARD"],
        "lat": 25.055969,
        "station_id": "NWT1260",
        "capacity": 10
      },
      {
        "name": "YouBike1.0_5 Villages in Ganyuan Joint Activity Center",
        "short_name": "wsqmfnnex",
        "lon": 121.386183,
        "rental_methods": ["KEY", "CREDITCARD"],
        "lat": 24.950576,
        "station_id": "NWT1261",
        "capacity": 10
      },
      {
        "name": "YouBike1.0_Fugui Park",
        "short_name": "wsqqdn1pg",
        "lon": 121.378464,
        "rental_methods": ["KEY", "CREDITCARD"],
        "lat": 25.083156,
        "station_id": "NWT1263",
        "capacity": 10
      },
      {
        "name": "YouBike1.0_Linkou Ziqiang Park",
        "short_name": "wsqqdmqdx",
        "lon": 121.397208,
        "rental_methods": ["KEY", "CREDITCARD"],
        "lat": 25.078126,
        "station_id": "NWT1264",
        "capacity": 10
      },
      {
        "name": "YouBike1.0_Yongchang Village Children Park (No.1)",
        "short_name": "wsqmcphz4",
        "lon": 121.339645,
        "rental_methods": ["KEY", "CREDITCARD"],
        "lat": 24.956661,
        "station_id": "NWT1265",
        "capacity": 10
      },
      {
        "name": "YouBike1.0_MRT Linkou Sta. (Exit 1)",
        "short_name": "wsqq9ej5f",
        "lon": 121.361962,
        "rental_methods": ["KEY", "CREDITCARD"],
        "lat": 25.06597,
        "station_id": "NWT1266",
        "capacity": 10
      },
      {
        "name": "YouBike1.0_Liyan Park",
        "short_name": "wsqq9smr7",
        "lon": 121.36234,
        "rental_methods": ["KEY", "CREDITCARD"],
        "lat": 25.073427,
        "station_id": "NWT1268",
        "capacity": 10
      },
      {
        "name": "YouBike1.0_Xibei Park",
        "short_name": "wsqq5m239",
        "lon": 121.432281,
        "rental_methods": ["KEY", "CREDITCARD"],
        "lat": 24.99006,
        "station_id": "NWT1269",
        "capacity": 10
      },
      {
        "name": "YouBike1.0_Dingxin-Zutian Civic Activity Center",
        "short_name": "wsqmfy925",
        "lon": 121.411768,
        "rental_methods": ["KEY", "CREDITCARD"],
        "lat": 24.95271,
        "station_id": "NWT1270",
        "capacity": 10
      },
      {
        "name": "YouBike1.0_Guihe Civil Activity Center",
        "short_name": "wsqq7j2xp",
        "lon": 121.421928,
        "rental_methods": ["KEY", "CREDITCARD"],
        "lat": 25.034961,
        "station_id": "NWT1271",
        "capacity": 10
      },
      {
        "name": "YouBike1.0_Dingpu Elementary School",
        "short_name": "wsqmfz5m1",
        "lon": 121.414421,
        "rental_methods": ["KEY", "CREDITCARD"],
        "lat": 24.956343,
        "station_id": "NWT1272",
        "capacity": 10
      },
      {
        "name": "YouBike1.0_Chiaohsi Office of Sanxia District",
        "short_name": "wsqmcfp4x",
        "lon": 121.375921,
        "rental_methods": ["KEY", "CREDITCARD"],
        "lat": 24.928438,
        "station_id": "NWT1273",
        "capacity": 10
      },
      {
        "name": "YouBike1.0_Linkou Elementary School",
        "short_name": "wsqqdmbbx",
        "lon": 121.389307,
        "rental_methods": ["KEY", "CREDITCARD"],
        "lat": 25.080533,
        "station_id": "NWT1274",
        "capacity": 10
      },
      {
        "name": "YouBike1.0_Nanshih Civil Activity Center",
        "short_name": "wsqq9sdfg",
        "lon": 121.358924,
        "rental_methods": ["KEY", "CREDITCARD"],
        "lat": 25.074035,
        "station_id": "NWT1275",
        "capacity": 10
      },
      {
        "name": "YouBike1.0_Qingshan Square",
        "short_name": "wsqq5gh63",
        "lon": 121.459751,
        "rental_methods": ["KEY", "CREDITCARD"],
        "lat": 24.977837,
        "station_id": "NWT1276",
        "capacity": 10
      },
      {
        "name": "YouBike1.0_Linkou Community Sports Park",
        "short_name": "wsqqdh859",
        "lon": 121.377001,
        "rental_methods": ["KEY", "CREDITCARD"],
        "lat": 25.07415,
        "station_id": "NWT1277",
        "capacity": 10
      },
      {
        "name": "YouBike1.0_MRT Xinzhuang Sta. (Exit 2)",
        "short_name": "wsqq7txjx",
        "lon": 121.452792,
        "rental_methods": ["KEY", "CREDITCARD"],
        "lat": 25.036075,
        "station_id": "NWT1278",
        "capacity": 10
      },
      {
        "name": "YouBike1.0_Junying & Junbao Intersection",
        "short_name": "wsqq70g0g",
        "lon": 121.425183,
        "rental_methods": ["KEY", "CREDITCARD"],
        "lat": 25.00915,
        "station_id": "NWT1279",
        "capacity": 10
      },
      {
        "name": "YouBike1.0_Wugu Civil Sports Center",
        "short_name": "wsqqg8s0n",
        "lon": 121.448652,
        "rental_methods": ["KEY", "CREDITCARD"],
        "lat": 25.095553,
        "station_id": "NWT1280",
        "capacity": 10
      },
      {
        "name": "YouBike1.0_Xuecheng & Dayi Intersection",
        "short_name": "wsqmfj178",
        "lon": 121.378671,
        "rental_methods": ["KEY", "CREDITCARD"],
        "lat": 24.945099,
        "station_id": "NWT1281",
        "capacity": 10
      },
      {
        "name": "YouBike1.0_MRT Touqianzhuang Sta.(Exit.1)",
        "short_name": "wsqq7ym0g",
        "lon": 121.460856,
        "rental_methods": ["KEY", "CREDITCARD"],
        "lat": 25.039365,
        "station_id": "NWT1282",
        "capacity": 10
      },
      {
        "name": "YouBike1.0_Chengde Park",
        "short_name": "wsqqgdpre",
        "lon": 121.452963,
        "rental_methods": ["KEY", "CREDITCARD"],
        "lat": 25.105052,
        "station_id": "NWT1284",
        "capacity": 10
      },
      {
        "name": "YouBike1.0_Touhou Elementary School",
        "short_name": "wsqq9vuzk",
        "lon": 121.372687,
        "rental_methods": ["KEY", "CREDITCARD"],
        "lat": 25.081673,
        "station_id": "NWT1285",
        "capacity": 10
      },
      {
        "name": "YouBike1.0_Jincheng & Lide Intersection",
        "short_name": "wsqqhh8qn",
        "lon": 121.465481,
        "rental_methods": ["KEY", "CREDITCARD"],
        "lat": 24.986691,
        "station_id": "NWT1286",
        "capacity": 10
      },
      {
        "name": "YouBike1.0_En Chu Kong Hospital",
        "short_name": "wsqmceypx",
        "lon": 121.363553,
        "rental_methods": ["KEY", "CREDITCARD"],
        "lat": 24.938912,
        "station_id": "NWT1287",
        "capacity": 10
      },
      {
        "name": "YouBike1.0_San chong Yongfeng Park",
        "short_name": "wsqqsk9wq",
        "lon": 121.478162,
        "rental_methods": ["KEY", "CREDITCARD"],
        "lat": 25.074629,
        "station_id": "NWT1290",
        "capacity": 10
      },
      {
        "name": "YouBike1.0_National Taiwan University of Arts",
        "short_name": "wsqq787xr",
        "lon": 121.448,
        "rental_methods": ["KEY", "CREDITCARD"],
        "lat": 25.007502,
        "station_id": "NWT1291",
        "capacity": 10
      },
      {
        "name": "YouBike1.0_Xinzhuang Gymnasium",
        "short_name": "wsqq7wwcp",
        "lon": 121.452459,
        "rental_methods": ["KEY", "CREDITCARD"],
        "lat": 25.040766,
        "station_id": "NWT1292",
        "capacity": 10
      },
      {
        "name": "YouBike1.0_Sanduo Elementary School",
        "short_name": "wsqq6djgp",
        "lon": 121.407135,
        "rental_methods": ["KEY", "CREDITCARD"],
        "lat": 25.016405,
        "station_id": "NWT1294",
        "capacity": 10
      },
      {
        "name": "YouBike1.0_Yongan Children's Park",
        "short_name": "wsqqsqhdv",
        "lon": 121.482236,
        "rental_methods": ["KEY", "CREDITCARD"],
        "lat": 25.082273,
        "station_id": "NWT1295",
        "capacity": 10
      },
      {
        "name": "YouBike1.0_Fulun Park",
        "short_name": "wsqq9u6s1",
        "lon": 121.36948,
        "rental_methods": ["KEY", "CREDITCARD"],
        "lat": 25.072864,
        "station_id": "NWT1297",
        "capacity": 10
      },
      {
        "name": "YouBike1.0_Lide Park",
        "short_name": "wsqq9v0bv",
        "lon": 121.367223,
        "rental_methods": ["KEY", "CREDITCARD"],
        "lat": 25.076441,
        "station_id": "NWT1299",
        "capacity": 10
      },
      {
        "name": "YouBike1.0_Banqiao Station",
        "short_name": "wsqq7czjy",
        "lon": 121.463735,
        "rental_methods": ["KEY", "CREDITCARD"],
        "lat": 25.015519,
        "station_id": "NWT1302",
        "capacity": 10
      },
      {
        "name": "YouBike1.0_Shulin  Civil  Sports Center",
        "short_name": "wsqq5pc7v",
        "lon": 121.422847,
        "rental_methods": ["KEY", "CREDITCARD"],
        "lat": 25.004186,
        "station_id": "NWT1303",
        "capacity": 10
      },
      {
        "name": "YouBike1.0_MRT Fu Jen University Sta.(Exit.4)",
        "short_name": "wsqq7m57g",
        "lon": 121.436484,
        "rental_methods": ["KEY", "CREDITCARD"],
        "lat": 25.033025,
        "station_id": "NWT1304",
        "capacity": 10
      },
      {
        "name": "YouBike1.0_Min\u2019an E.& Minquan Intersection",
        "short_name": "wsqq74yk9",
        "lon": 121.429556,
        "rental_methods": ["KEY", "CREDITCARD"],
        "lat": 25.020774,
        "station_id": "NWT1305",
        "capacity": 10
      },
      {
        "name": "YouBike1.0_Zhongxing N. St. 175 Ln",
        "short_name": "wsqqs1k9x",
        "lon": 121.471327,
        "rental_methods": ["KEY", "CREDITCARD"],
        "lat": 25.05597,
        "station_id": "NWT1306",
        "capacity": 10
      },
      {
        "name": "YouBike1.0_Wugu Gongshang Parking Towe",
        "short_name": "wsqqeqjs4",
        "lon": 121.439555,
        "rental_methods": ["KEY", "CREDITCARD"],
        "lat": 25.082494,
        "station_id": "NWT1308",
        "capacity": 10
      },
      {
        "name": "YouBike1.0_Peipo Community Park",
        "short_name": "wsqq4brje",
        "lon": 121.419672,
        "rental_methods": ["KEY", "CREDITCARD"],
        "lat": 24.963289,
        "station_id": "NWT1309",
        "capacity": 10
      },
      {
        "name": "YouBike1.0_Longfeng Park",
        "short_name": "wsqq6ghb3",
        "lon": 121.416497,
        "rental_methods": ["KEY", "CREDITCARD"],
        "lat": 25.021447,
        "station_id": "NWT1312",
        "capacity": 10
      },
      {
        "name": "YouBike1.0_Yijibang",
        "short_name": "wsqq6ude3",
        "lon": 121.413402,
        "rental_methods": ["KEY", "CREDITCARD"],
        "lat": 25.030186,
        "station_id": "NWT1313",
        "capacity": 10
      },
      {
        "name": "YouBike1.0_First of Sanduo Civil Activity Center",
        "short_name": "wsqq6d5fu",
        "lon": 121.404257,
        "rental_methods": ["KEY", "CREDITCARD"],
        "lat": 25.016361,
        "station_id": "NWT1314",
        "capacity": 10
      },
      {
        "name": "YouBike1.0_New Taipei Industrial Vocational High School",
        "short_name": "wsqq5evp5",
        "lon": 121.4499,
        "rental_methods": ["KEY", "CREDITCARD"],
        "lat": 24.98277,
        "station_id": "NWT1315",
        "capacity": 10
      },
      {
        "name": "YouBike1.0_Changfeng Community",
        "short_name": "wsqq57jkn",
        "lon": 121.439369,
        "rental_methods": ["KEY", "CREDITCARD"],
        "lat": 24.978108,
        "station_id": "NWT1317",
        "capacity": 10
      },
      {
        "name": "YouBike1.0_Minsheng Parent-child Park",
        "short_name": "wsqq5jv6d",
        "lon": 121.428196,
        "rental_methods": ["KEY", "CREDITCARD"],
        "lat": 24.992983,
        "station_id": "NWT1320",
        "capacity": 10
      },
      {
        "name": "YouBike1.0_Shulin industrial zone",
        "short_name": "wsqq4zk2x",
        "lon": 121.416091,
        "rental_methods": ["KEY", "CREDITCARD"],
        "lat": 25.000868,
        "station_id": "NWT1321",
        "capacity": 10
      },
      {
        "name": "YouBike1.0_Longpu Park",
        "short_name": "wsqmcgvxe",
        "lon": 121.373676,
        "rental_methods": ["KEY", "CREDITCARD"],
        "lat": 24.938911,
        "station_id": "NWT1322",
        "capacity": 10
      },
      {
        "name": "YouBike1.0_Municipal Jianshan Junior High School",
        "short_name": "wsqmchyx5",
        "lon": 121.342089,
        "rental_methods": ["KEY", "CREDITCARD"],
        "lat": 24.9443,
        "station_id": "NWT1323",
        "capacity": 10
      },
      {
        "name": "YouBike1.0_Fuzhou Train Station",
        "short_name": "wsqq5xc5k",
        "lon": 121.444447,
        "rental_methods": ["KEY", "CREDITCARD"],
        "lat": 25.004098,
        "station_id": "NWT1325",
        "capacity": 10
      },
      {
        "name": "YouBike1.0_MRT Haishan",
        "short_name": "wsqq5sk47",
        "lon": 121.448504,
        "rental_methods": ["KEY", "CREDITCARD"],
        "lat": 24.984695,
        "station_id": "NWT1326",
        "capacity": 10
      },
      {
        "name": "YouBike1.0_Taipei Deyi GO",
        "short_name": "wsqqshdjn",
        "lon": 121.467852,
        "rental_methods": ["KEY", "CREDITCARD"],
        "lat": 25.074424,
        "station_id": "NWT1332",
        "capacity": 10
      },
      {
        "name": "YouBike1.0_Daguan Junior High School",
        "short_name": "wsqq795hv",
        "lon": 121.447237,
        "rental_methods": ["KEY", "CREDITCARD"],
        "lat": 25.01121,
        "station_id": "NWT1333",
        "capacity": 10
      },
      {
        "name": "YouBike1.0_Taiyang Park",
        "short_name": "wsqqsqz55",
        "lon": 121.485599,
        "rental_methods": ["KEY", "CREDITCARD"],
        "lat": 25.086448,
        "station_id": "NWT1334",
        "capacity": 10
      },
      {
        "name": "YouBike1.0_Wuchang Park(Sanchong Dist)",
        "short_name": "wsqqstyc3",
        "lon": 121.496149,
        "rental_methods": ["KEY", "CREDITCARD"],
        "lat": 25.080648,
        "station_id": "NWT1335",
        "capacity": 10
      },
      {
        "name": "YouBike1.0_Sante Park",
        "short_name": "wsqqsucbr",
        "lon": 121.500542,
        "rental_methods": ["KEY", "CREDITCARD"],
        "lat": 25.074974,
        "station_id": "NWT1336",
        "capacity": 10
      },
      {
        "name": "YouBike1.0_Lixing & Tayung Intersection",
        "short_name": "wsqqskhns",
        "lon": 121.481508,
        "rental_methods": ["KEY", "CREDITCARD"],
        "lat": 25.071928,
        "station_id": "NWT1337",
        "capacity": 10
      },
      {
        "name": "YouBike1.0_Luzhou Yanping Police Station",
        "short_name": "wsqqevvxh",
        "lon": 121.46162,
        "rental_methods": ["KEY", "CREDITCARD"],
        "lat": 25.08162,
        "station_id": "NWT1338",
        "capacity": 10
      },
      {
        "name": "YouBike1.0_Yong' an S. Rd. & Ln. 71, Jiuqiong St Intersection",
        "short_name": "wsqqsj0zk",
        "lon": 121.466071,
        "rental_methods": ["KEY", "CREDITCARD"],
        "lat": 25.077564,
        "station_id": "NWT1339",
        "capacity": 10
      },
      {
        "name": "YouBike1.0_Shulin elementary school",
        "short_name": "wsqq4vju6",
        "lon": 121.41791,
        "rental_methods": ["KEY", "CREDITCARD"],
        "lat": 24.989136,
        "station_id": "NWT1344",
        "capacity": 10
      },
      {
        "name": "YouBike1.0_Yongchi elementary school",
        "short_name": "wsqmcp854",
        "lon": 121.333095,
        "rental_methods": ["KEY", "CREDITCARD"],
        "lat": 24.958747,
        "station_id": "NWT1345",
        "capacity": 10
      },
      {
        "name": "YouBike1.0_Zhongyuan elementary school",
        "short_name": "wsqmccbtw",
        "lon": 121.366919,
        "rental_methods": ["KEY", "CREDITCARD"],
        "lat": 24.927551,
        "station_id": "NWT1346",
        "capacity": 10
      },
      {
        "name": "YouBike1.0_Jieshou\u00a0elementary school",
        "short_name": "wsqmf43mg",
        "lon": 121.378835,
        "rental_methods": ["KEY", "CREDITCARD"],
        "lat": 24.930341,
        "station_id": "NWT1347",
        "capacity": 10
      },
      {
        "name": "YouBike1.0_Ansi Junior High School",
        "short_name": "wsqmccu35",
        "lon": 121.371957,
        "rental_methods": ["KEY", "CREDITCARD"],
        "lat": 24.92679,
        "station_id": "NWT1348",
        "capacity": 10
      },
      {
        "name": "YouBike1.0_Longpu elementary school",
        "short_name": "wsqmcurv5",
        "lon": 121.376763,
        "rental_methods": ["KEY", "CREDITCARD"],
        "lat": 24.941224,
        "station_id": "NWT1349",
        "capacity": 10
      },
      {
        "name": "YouBike1.0_Daan & Sec.2 Zhongshan Intersection",
        "short_name": "wsqq4u10b",
        "lon": 121.411318,
        "rental_methods": ["KEY", "CREDITCARD"],
        "lat": 24.983043,
        "station_id": "NWT1350",
        "capacity": 10
      },
      {
        "name": "YouBike1.0_Shulin District Office",
        "short_name": "wsqq5j4zf",
        "lon": 121.42478,
        "rental_methods": ["KEY", "CREDITCARD"],
        "lat": 24.98976,
        "station_id": "NWT1351",
        "capacity": 10
      },
      {
        "name": "YouBike1.0_Luzhou Chongyang Building",
        "short_name": "wsqqsqs7j",
        "lon": 121.481887,
        "rental_methods": ["KEY", "CREDITCARD"],
        "lat": 25.085055,
        "station_id": "NWT1352",
        "capacity": 10
      },
      {
        "name": "YouBike1.0_Puqian Elementary School",
        "short_name": "wsqqk4w6w",
        "lon": 121.473724,
        "rental_methods": ["KEY", "CREDITCARD"],
        "lat": 25.019078,
        "station_id": "NWT1353",
        "capacity": 10
      },
      {
        "name": "YouBike1.0_Shia Juang Market",
        "short_name": "wsqr49b8g",
        "lon": 121.399748,
        "rental_methods": ["KEY", "CREDITCARD"],
        "lat": 25.146498,
        "station_id": "NWT1355",
        "capacity": 10
      },
      {
        "name": "YouBike1.0_Yazhou & Yuan'an Rd.",
        "short_name": "wsqq564h5",
        "lon": 121.434796,
        "rental_methods": ["KEY", "CREDITCARD"],
        "lat": 24.972621,
        "station_id": "NWT1356",
        "capacity": 10
      },
      {
        "name": "YouBike1.0_St. Weiwang",
        "short_name": "wsqq4ds00",
        "lon": 121.404424,
        "rental_methods": ["KEY", "CREDITCARD"],
        "lat": 24.974674,
        "station_id": "NWT1359",
        "capacity": 10
      },
      {
        "name": "YouBike1.0_Zhenyi Village Park",
        "short_name": "wsqqectn5",
        "lon": 121.460892,
        "rental_methods": ["KEY", "CREDITCARD"],
        "lat": 25.0581,
        "station_id": "NWT1360",
        "capacity": 10
      },
      {
        "name": "YouBike1.0_Zhenyi Village Park",
        "short_name": "wsqqk7myt",
        "lon": 121.483965,
        "rental_methods": ["KEY", "CREDITCARD"],
        "lat": 25.023888,
        "station_id": "NWT1361",
        "capacity": 10
      },
      {
        "name": "YouBike1.0_Anxi Elementary School",
        "short_name": "wsqmcfkxk",
        "lon": 121.372344,
        "rental_methods": ["KEY", "CREDITCARD"],
        "lat": 24.930621,
        "station_id": "NWT1362",
        "capacity": 10
      },
      {
        "name": "YouBike1.0_Changlong Elementary School",
        "short_name": "wsqqeb8g0",
        "lon": 121.454891,
        "rental_methods": ["KEY", "CREDITCARD"],
        "lat": 25.052129,
        "station_id": "NWT1368",
        "capacity": 10
      },
      {
        "name": "YouBike1.0_MRT Xinzhuang Fuduxin Sta.",
        "short_name": "wsqqe9fsp",
        "lon": 121.446614,
        "rental_methods": ["KEY", "CREDITCARD"],
        "lat": 25.059145,
        "station_id": "NWT1369",
        "capacity": 10
      },
      {
        "name": "YouBike1.0_ Jiangcui Junior High School",
        "short_name": "wsqqkh4wt",
        "lon": 121.468512,
        "rental_methods": ["KEY", "CREDITCARD"],
        "lat": 25.027987,
        "station_id": "NWT1372",
        "capacity": 10
      },
      {
        "name": "YouBike1.0_MRT New Taipei Industrial Park Sta.",
        "short_name": "wsqqef7uu",
        "lon": 121.459184,
        "rental_methods": ["KEY", "CREDITCARD"],
        "lat": 25.062029,
        "station_id": "NWT1373",
        "capacity": 10
      },
      {
        "name": "YouBike1.0_MRT Taishan Guihe Sta.",
        "short_name": "wsqq7j0uy",
        "lon": 121.422215,
        "rental_methods": ["KEY", "CREDITCARD"],
        "lat": 25.033192,
        "station_id": "NWT1374",
        "capacity": 10
      },
      {
        "name": "YouBike1.0_Long Xing Parking Tower",
        "short_name": "wsqqgwy5h",
        "lon": 121.451302,
        "rental_methods": ["KEY", "CREDITCARD"],
        "lat": 25.13041,
        "station_id": "NWT1375",
        "capacity": 10
      },
      {
        "name": "YouBike1.0_MITSUI OUTLET PARK",
        "short_name": "wsqq9u0hx",
        "lon": 121.366303,
        "rental_methods": ["KEY", "CREDITCARD"],
        "lat": 25.071574,
        "station_id": "NWT1378",
        "capacity": 10
      },
      {
        "name": "YouBike1.0_Ln. 193, Zhongzheng N. Rd(A.Mart Sanchong)",
        "short_name": "wsqqsk057",
        "lon": 121.475985,
        "rental_methods": ["KEY", "CREDITCARD"],
        "lat": 25.071362,
        "station_id": "NWT1380",
        "capacity": 10
      },
      {
        "name": "YouBike1.0_Xiang Yu Twin Towers",
        "short_name": "wsqqs8ukn",
        "lon": 121.492924,
        "rental_methods": ["KEY", "CREDITCARD"],
        "lat": 25.053638,
        "station_id": "NWT1381",
        "capacity": 10
      },
      {
        "name": "YouBike1.0_Ming Chi University Of Technology",
        "short_name": "wsqq7n3pn",
        "lon": 121.422548,
        "rental_methods": ["KEY", "CREDITCARD"],
        "lat": 25.040434,
        "station_id": "NWT1382",
        "capacity": 10
      },
      {
        "name": "YouBike1.0_Sanmin Senior High School(Minquan Rd.)",
        "short_name": "wsqqspns7",
        "lon": 121.473928,
        "rental_methods": ["KEY", "CREDITCARD"],
        "lat": 25.088024,
        "station_id": "NWT1383",
        "capacity": 10
      },
      {
        "name": "YouBike1.0_Huanhe S. & Fude S. Rd.",
        "short_name": "wsqqsf54t",
        "lon": 121.502173,
        "rental_methods": ["KEY", "CREDITCARD"],
        "lat": 25.060285,
        "station_id": "NWT1384",
        "capacity": 10
      },
      {
        "name": "YouBike1.0_Wenlin Elementary School( Tanxing St.)",
        "short_name": "wsqq5nfgm",
        "lon": 121.424892,
        "rental_methods": ["KEY", "CREDITCARD"],
        "lat": 24.998601,
        "station_id": "NWT1385",
        "capacity": 10
      },
      {
        "name": "YouBike1.0_Dongyang Civil Activity Center",
        "short_name": "wsqq4gcgu",
        "lon": 121.412517,
        "rental_methods": ["KEY", "CREDITCARD"],
        "lat": 24.982192,
        "station_id": "NWT1389",
        "capacity": 10
      },
      {
        "name": "YouBike1.0_Kuangfu Elementary School",
        "short_name": "wsqqk3u7q",
        "lon": 121.48193,
        "rental_methods": ["KEY", "CREDITCARD"],
        "lat": 25.015064,
        "station_id": "NWT1401",
        "capacity": 10
      },
      {
        "name": "YouBike1.0_Lide & Qingyun Intersection",
        "short_name": "wsqq5uuzw",
        "lon": 121.460675,
        "rental_methods": ["KEY", "CREDITCARD"],
        "lat": 24.988355,
        "station_id": "NWT1404",
        "capacity": 10
      },
      {
        "name": "YouBike1.0_New TaipeiCity Linkou Administrative Park",
        "short_name": "wsqq9eyk3",
        "lon": 121.363632,
        "rental_methods": ["KEY", "CREDITCARD"],
        "lat": 25.070158,
        "station_id": "NWT1405",
        "capacity": 10
      },
      {
        "name": "YouBike1.0_Luzhou Lee Family Historic Estate",
        "short_name": "wsqqsn94r",
        "lon": 121.466551,
        "rental_methods": ["KEY", "CREDITCARD"],
        "lat": 25.084959,
        "station_id": "NWT1408",
        "capacity": 10
      },
      {
        "name": "YouBike1.0_Xinzhuang Labors Center",
        "short_name": "wsqq76c3g",
        "lon": 121.433736,
        "rental_methods": ["KEY", "CREDITCARD"],
        "lat": 25.020332,
        "station_id": "NWT1410",
        "capacity": 10
      },
      {
        "name": "YouBike1.0_Fumei Park",
        "short_name": "wsqqecjk0",
        "lon": 121.461081,
        "rental_methods": ["KEY", "CREDITCARD"],
        "lat": 25.055033,
        "station_id": "NWT1415",
        "capacity": 10
      },
      {
        "name": "YouBike1.0_FTV Digital Media Headquarter",
        "short_name": "wsqqdj9sv",
        "lon": 121.379259,
        "rental_methods": ["KEY", "CREDITCARD"],
        "lat": 25.079876,
        "station_id": "NWT1417",
        "capacity": 10
      },
      {
        "name": "YouBike1.0_Wu Gu Post Office",
        "short_name": "wsqqg9wh2",
        "lon": 121.451127,
        "rental_methods": ["KEY", "CREDITCARD"],
        "lat": 25.101774,
        "station_id": "NWT1418",
        "capacity": 10
      },
      {
        "name": "YouBike1.0_Ln. 111, Guotai St.",
        "short_name": "wsqqk028m",
        "lon": 121.465773,
        "rental_methods": ["KEY", "CREDITCARD"],
        "lat": 25.006321,
        "station_id": "NWT1420",
        "capacity": 10
      },
      {
        "name": "YouBike1.0_Nan Ya Tourist Night Market(Jin Du Bridge)",
        "short_name": "wsqq78qzw",
        "lon": 121.45244,
        "rental_methods": ["KEY", "CREDITCARD"],
        "lat": 25.007585,
        "station_id": "NWT1421",
        "capacity": 10
      },
      {
        "name": "YouBike1.0_Xuecheng Park",
        "short_name": "wsqq5syp1",
        "lon": 121.451187,
        "rental_methods": ["KEY", "CREDITCARD"],
        "lat": 24.988246,
        "station_id": "NWT1422",
        "capacity": 10
      },
      {
        "name": "YouBike1.0_Fengxiang Park",
        "short_name": "wsqq0bmfz",
        "lon": 121.330254,
        "rental_methods": ["KEY", "CREDITCARD"],
        "lat": 24.962819,
        "station_id": "NWT1423",
        "capacity": 10
      },
      {
        "name": "YouBike1.0_Guangming Market",
        "short_name": "wsqqs9e9s",
        "lon": 121.491809,
        "rental_methods": ["KEY", "CREDITCARD"],
        "lat": 25.057335,
        "station_id": "NWT1424",
        "capacity": 10
      },
      {
        "name": "YouBike1.0_Tucheng Junior High School",
        "short_name": "wsqq50qbu",
        "lon": 121.430347,
        "rental_methods": ["KEY", "CREDITCARD"],
        "lat": 24.962443,
        "station_id": "NWT1427",
        "capacity": 10
      },
      {
        "name": "YouBike1.0_Zhonghua & Ln. 242, Sec. 1, Zhongyang Intersection",
        "short_name": "wsqq5s2rj",
        "lon": 121.44345,
        "rental_methods": ["KEY", "CREDITCARD"],
        "lat": 24.98551,
        "station_id": "NWT1430",
        "capacity": 10
      },
      {
        "name": "YouBike1.0_Wugu Gongwu Park",
        "short_name": "wsqqewc5y",
        "lon": 121.44452,
        "rental_methods": ["KEY", "CREDITCARD"],
        "lat": 25.08658,
        "station_id": "NWT1431",
        "capacity": 10
      },
      {
        "name": "YouBike1.0_Shulin Da\u2019an",
        "short_name": "wsqq5n8eg",
        "lon": 121.421725,
        "rental_methods": ["KEY", "CREDITCARD"],
        "lat": 24.997312,
        "station_id": "NWT1433",
        "capacity": 10
      },
      {
        "name": "YouBike1.0_Guangting Sec. Parking Lot",
        "short_name": "wsqq9ughs",
        "lon": 121.370261,
        "rental_methods": ["KEY", "CREDITCARD"],
        "lat": 25.075711,
        "station_id": "NWT1434",
        "capacity": 10
      },
      {
        "name": "YouBike1.0_Minyi Park",
        "short_name": "wsqqer1yh",
        "lon": 121.4345,
        "rental_methods": ["KEY", "CREDITCARD"],
        "lat": 25.08835,
        "station_id": "NWT1435",
        "capacity": 10
      },
      {
        "name": "YouBike1.0_Dalun Park",
        "short_name": "wsqq9t53y",
        "lon": 121.359704,
        "rental_methods": ["KEY", "CREDITCARD"],
        "lat": 25.076613,
        "station_id": "NWT1436",
        "capacity": 10
      },
      {
        "name": "YouBike1.0_Chengzhou Elementary School",
        "short_name": "wsqqg9jts",
        "lon": 121.45063,
        "rental_methods": ["KEY", "CREDITCARD"],
        "lat": 25.09923,
        "station_id": "NWT1437",
        "capacity": 10
      },
      {
        "name": "YouBike1.0_Aly. 17, Ln. 42, Zhongxing N. St.",
        "short_name": "wsqqs04zn",
        "lon": 121.46892,
        "rental_methods": ["KEY", "CREDITCARD"],
        "lat": 25.05006,
        "station_id": "NWT1438",
        "capacity": 10
      },
      {
        "name": "YouBike1.0_Huajiang 1st Rd. /9th Rd. Intersection",
        "short_name": "wsqqkj15j",
        "lon": 121.466442,
        "rental_methods": ["KEY", "CREDITCARD"],
        "lat": 25.032884,
        "station_id": "NWT1440",
        "capacity": 10
      },
      {
        "name": "YouBike1.0_Sanguang Elementary School(JinManYi)",
        "short_name": "wsqqs9r3d",
        "lon": 121.496874,
        "rental_methods": ["KEY", "CREDITCARD"],
        "lat": 25.05596,
        "station_id": "NWT1441",
        "capacity": 10
      },
      {
        "name": "YouBike1.0_Luzhou Zhonglu Park",
        "short_name": "wsqqsn46u",
        "lon": 121.468143,
        "rental_methods": ["KEY", "CREDITCARD"],
        "lat": 25.082299,
        "station_id": "NWT1442",
        "capacity": 10
      },
      {
        "name": "YouBike1.0_Linkou Senior High School",
        "short_name": "wsqqdhd3t",
        "lon": 121.3803,
        "rental_methods": ["KEY", "CREDITCARD"],
        "lat": 25.07384,
        "station_id": "NWT1443",
        "capacity": 10
      },
      {
        "name": "YouBike1.0_Haishan High School",
        "short_name": "wsqqk0ubd",
        "lon": 121.471493,
        "rental_methods": ["KEY", "CREDITCARD"],
        "lat": 25.009108,
        "station_id": "NWT1445",
        "capacity": 10
      },
      {
        "name": "YouBike1.0_Wanban & Wensheng Intersection",
        "short_name": "wsqqk7fu9",
        "lon": 121.479675,
        "rental_methods": ["KEY", "CREDITCARD"],
        "lat": 25.026295,
        "station_id": "NWT1448",
        "capacity": 10
      },
      {
        "name": "YouBike1.0_MingDer Senior High School",
        "short_name": "wsqm9wr0m",
        "lon": 121.364848,
        "rental_methods": ["KEY", "CREDITCARD"],
        "lat": 24.907449,
        "station_id": "NWT1449",
        "capacity": 10
      },
      {
        "name": "YouBike1.0_Fengming Elementary School",
        "short_name": "wsqq11921",
        "lon": 121.334806,
        "rental_methods": ["KEY", "CREDITCARD"],
        "lat": 24.969198,
        "station_id": "NWT1450",
        "capacity": 10
      },
      {
        "name": "YouBike1.0_The Lin Family Mansion and Garden",
        "short_name": "wsqq7c1dc",
        "lon": 121.45598,
        "rental_methods": ["KEY", "CREDITCARD"],
        "lat": 25.01086,
        "station_id": "NWT1451",
        "capacity": 10
      },
      {
        "name": "YouBike1.0_Lantian Building",
        "short_name": "wsqqs0gbg",
        "lon": 121.470165,
        "rental_methods": ["KEY", "CREDITCARD"],
        "lat": 25.053098,
        "station_id": "NWT1452",
        "capacity": 10
      },
      {
        "name": "YouBike1.0_Dazhi Park",
        "short_name": "wsqqsdtw1",
        "lon": 121.494449,
        "rental_methods": ["KEY", "CREDITCARD"],
        "lat": 25.063608,
        "station_id": "NWT1454",
        "capacity": 10
      },
      {
        "name": "YouBike1.0_Guoji 2nd Guoji 1st Intersection",
        "short_name": "wsqq14c2s",
        "lon": 121.334938,
        "rental_methods": ["KEY", "CREDITCARD"],
        "lat": 24.976171,
        "station_id": "NWT1455",
        "capacity": 10
      },
      {
        "name": "YouBike1.0_SanChong Senior High School",
        "short_name": "wsqqs95dd",
        "lon": 121.49171,
        "rental_methods": ["KEY", "CREDITCARD"],
        "lat": 25.054777,
        "station_id": "NWT1456",
        "capacity": 10
      },
      {
        "name": "YouBike1.0_Changping Park",
        "short_name": "wsqqecg17",
        "lon": 121.458109,
        "rental_methods": ["KEY", "CREDITCARD"],
        "lat": 25.058664,
        "station_id": "NWT1457",
        "capacity": 10
      },
      {
        "name": "YouBike1.0_Hakka Museum New Taipei City Government",
        "short_name": "wsqmcse24",
        "lon": 121.359538,
        "rental_methods": ["KEY", "CREDITCARD"],
        "lat": 24.941729,
        "station_id": "NWT1458",
        "capacity": 10
      },
      {
        "name": "YouBike1.0_Xintai Swimming Pool",
        "short_name": "wsqq7rruh",
        "lon": 121.442734,
        "rental_methods": ["KEY", "CREDITCARD"],
        "lat": 25.045414,
        "station_id": "NWT1463",
        "capacity": 10
      },
      {
        "name": "YouBike1.0_Forest Park",
        "short_name": "wsqmfjdj9",
        "lon": 121.37976,
        "rental_methods": ["KEY", "CREDITCARD"],
        "lat": 24.948177,
        "station_id": "NWT1464",
        "capacity": 10
      },
      {
        "name": "YouBike1.0_Fuhua Park",
        "short_name": "wsqq781zh",
        "lon": 121.445449,
        "rental_methods": ["KEY", "CREDITCARD"],
        "lat": 25.006117,
        "station_id": "NWT1465",
        "capacity": 10
      },
      {
        "name": "YouBike1.0_Guang Fu Senior High School",
        "short_name": "wsqqk6kc5",
        "lon": 121.482513,
        "rental_methods": ["KEY", "CREDITCARD"],
        "lat": 25.017443,
        "station_id": "NWT1466",
        "capacity": 10
      },
      {
        "name": "YouBike1.0_Nanya & Yuzhi Rd. Intersection",
        "short_name": "wsqmcq9r6",
        "lon": 121.345824,
        "rental_methods": ["KEY", "CREDITCARD"],
        "lat": 24.953961,
        "station_id": "NWT1467",
        "capacity": 10
      },
      {
        "name": "YouBike1.0_Ku Pao Home Economics & Commercial High School",
        "short_name": "wsqqs5s80",
        "lon": 121.471028,
        "rental_methods": ["KEY", "CREDITCARD"],
        "lat": 25.068097,
        "station_id": "NWT1468",
        "capacity": 10
      },
      {
        "name": "YouBike1.0_Wende Elementary School(Gongguan St.)",
        "short_name": "wsqq7fupv",
        "lon": 121.459595,
        "rental_methods": ["KEY", "CREDITCARD"],
        "lat": 25.021336,
        "station_id": "NWT1469",
        "capacity": 10
      },
      {
        "name": "YouBike1.0_Xuecheng & Dacheng Intersection",
        "short_name": "wsqmfjk4q",
        "lon": 121.382719,
        "rental_methods": ["KEY", "CREDITCARD"],
        "lat": 24.946248,
        "station_id": "NWT1470",
        "capacity": 10
      },
      {
        "name": "YouBike1.0_Shidiao Park",
        "short_name": "wsqqkhe7g",
        "lon": 121.469469,
        "rental_methods": ["KEY", "CREDITCARD"],
        "lat": 25.030261,
        "station_id": "NWT1471",
        "capacity": 10
      },
      {
        "name": "YouBike1.0_New Taipei City Art Center(Ln. 124, Sec. 2, Wenhua Rd.)",
        "short_name": "wsqqk5ubb",
        "lon": 121.471401,
        "rental_methods": ["KEY", "CREDITCARD"],
        "lat": 25.025626,
        "station_id": "NWT1473",
        "capacity": 10
      },
      {
        "name": "YouBike1.0_Siwei Park Parking Lot",
        "short_name": "wsqq7gz2g",
        "lon": 121.463967,
        "rental_methods": ["KEY", "CREDITCARD"],
        "lat": 25.025618,
        "station_id": "NWT1474",
        "capacity": 10
      },
      {
        "name": "YouBike1.0_Guangfu Police Substation",
        "short_name": "wsqq5uctz",
        "lon": 121.456247,
        "rental_methods": ["KEY", "CREDITCARD"],
        "lat": 24.988019,
        "station_id": "NWT1475",
        "capacity": 10
      },
      {
        "name": "YouBike1.0_Dazhong Temple",
        "short_name": "wsqq7vfv2",
        "lon": 121.45766,
        "rental_methods": ["KEY", "CREDITCARD"],
        "lat": 25.03738,
        "station_id": "NWT1477",
        "capacity": 10
      },
      {
        "name": "YouBike1.0_Huacheng Park",
        "short_name": "wsqq7zvfk",
        "lon": 121.461962,
        "rental_methods": ["KEY", "CREDITCARD"],
        "lat": 25.04786,
        "station_id": "NWT1478",
        "capacity": 10
      },
      {
        "name": "YouBike1.0_Long En Park",
        "short_name": "wsqmcu7mf",
        "lon": 121.370524,
        "rental_methods": ["KEY", "CREDITCARD"],
        "lat": 24.941359,
        "station_id": "NWT1479",
        "capacity": 10
      },
      {
        "name": "YouBike1.0_New Taipei City Exhibition Hall",
        "short_name": "wsqqedg6m",
        "lon": 121.447585,
        "rental_methods": ["KEY", "CREDITCARD"],
        "lat": 25.064345,
        "station_id": "NWT1480",
        "capacity": 10
      },
      {
        "name": "YouBike1.0_Gincheng & Yumin Intersection(Zhing Zheng Junior High School)",
        "short_name": "wsqq5u18p",
        "lon": 121.456229,
        "rental_methods": ["KEY", "CREDITCARD"],
        "lat": 24.982933,
        "station_id": "NWT1481",
        "capacity": 10
      },
      {
        "name": "YouBike1.0_Ocean Park",
        "short_name": "wsqmcvxcw",
        "lon": 121.376895,
        "rental_methods": ["KEY", "CREDITCARD"],
        "lat": 24.94749,
        "station_id": "NWT1483",
        "capacity": 10
      },
      {
        "name": "YouBike1.0_Fuzhou Appropriate House ( Heyi 1st. Road )",
        "short_name": "wsqq5qrzm",
        "lon": 121.44276,
        "rental_methods": ["KEY", "CREDITCARD"],
        "lat": 24.99652,
        "station_id": "NWT1484",
        "capacity": 10
      },
      {
        "name": "YouBike1.0_NTPU(Computer Center)",
        "short_name": "wsqmcuf86",
        "lon": 121.36952,
        "rental_methods": ["KEY", "CREDITCARD"],
        "lat": 24.94317,
        "station_id": "NWT1486",
        "capacity": 10
      },
      {
        "name": "YouBike1.0_MRT Fuzhong Sta.(Exit.1)",
        "short_name": "wsqq7beg0",
        "lon": 121.45901,
        "rental_methods": ["KEY", "CREDITCARD"],
        "lat": 25.00818,
        "station_id": "NWT1487",
        "capacity": 10
      },
      {
        "name": "YouBike1.0_Xinzhuang Stadium",
        "short_name": "wsqq7xncq",
        "lon": 121.45244,
        "rental_methods": ["KEY", "CREDITCARD"],
        "lat": 25.04357,
        "station_id": "NWT1488",
        "capacity": 10
      },
      {
        "name": "YouBike1.0_Xintai Junior High School",
        "short_name": "wsqq7wcj2",
        "lon": 121.44426,
        "rental_methods": ["KEY", "CREDITCARD"],
        "lat": 25.04288,
        "station_id": "NWT1489",
        "capacity": 10
      },
      {
        "name": "YouBike1.0_Shanjia Railway Station",
        "short_name": "wsqq4653t",
        "lon": 121.39264,
        "rental_methods": ["KEY", "CREDITCARD"],
        "lat": 24.97222,
        "station_id": "NWT1491",
        "capacity": 10
      },
      {
        "name": "YouBike1.0_New Taipei City Labor Activity Center",
        "short_name": "wsqqedmcu",
        "lon": 121.45098,
        "rental_methods": ["KEY", "CREDITCARD"],
        "lat": 25.06149,
        "station_id": "NWT1492",
        "capacity": 10
      },
      {
        "name": "YouBike1.0_Banqiao Chongqing Park",
        "short_name": "wsqq5znu0",
        "lon": 121.46316,
        "rental_methods": ["KEY", "CREDITCARD"],
        "lat": 25.00008,
        "station_id": "NWT1493",
        "capacity": 10
      },
      {
        "name": "YouBike1.0_Zhonggang Vision Hall",
        "short_name": "wsqqe9y4c",
        "lon": 121.45117,
        "rental_methods": ["KEY", "CREDITCARD"],
        "lat": 25.05894,
        "station_id": "NWT1497",
        "capacity": 10
      },
      {
        "name": "YouBike1.0_Touqian Elementary School",
        "short_name": "wsqqs08m3",
        "lon": 121.46527,
        "rental_methods": ["KEY", "CREDITCARD"],
        "lat": 25.05248,
        "station_id": "NWT1498",
        "capacity": 10
      },
      {
        "name": "YouBike1.0_Xianmin & Hansheng E. Intersection",
        "short_name": "wsqqk1cwk",
        "lon": 121.46709,
        "rental_methods": ["KEY", "CREDITCARD"],
        "lat": 25.0156,
        "station_id": "NWT1502",
        "capacity": 10
      },
      {
        "name": "YouBike1.0_Time Park",
        "short_name": "wsqqkmdy4",
        "lon": 121.47973,
        "rental_methods": ["KEY", "CREDITCARD"],
        "lat": 25.03615,
        "station_id": "NWT1503",
        "capacity": 10
      },
      {
        "name": "YouBike1.0_Yuanhe Park",
        "short_name": "wsqq57rc2",
        "lon": 121.44254,
        "rental_methods": ["KEY", "CREDITCARD"],
        "lat": 24.97904,
        "station_id": "NWT1505",
        "capacity": 10
      },
      {
        "name": "YouBike1.0_Huanhe Park",
        "short_name": "wsqq7djst",
        "lon": 121.45064,
        "rental_methods": ["KEY", "CREDITCARD"],
        "lat": 25.01666,
        "station_id": "NWT1506",
        "capacity": 10
      },
      {
        "name": "YouBike1.0_Xinzhuang Civil Sports Center",
        "short_name": "wsqq7wkfm",
        "lon": 121.44962,
        "rental_methods": ["KEY", "CREDITCARD"],
        "lat": 25.03961,
        "station_id": "NWT1508",
        "capacity": 10
      },
      {
        "name": "YouBike1.0_Sanying Civil Sports Center",
        "short_name": "wsqmcg6x8",
        "lon": 121.36941,
        "rental_methods": ["KEY", "CREDITCARD"],
        "lat": 24.93614,
        "station_id": "NWT1510",
        "capacity": 10
      },
      {
        "name": "YouBike1.0_Caihong Children's Park",
        "short_name": "wsqqezrb6",
        "lon": 121.4646,
        "rental_methods": ["KEY", "CREDITCARD"],
        "lat": 25.08871,
        "station_id": "NWT1511",
        "capacity": 10
      },
      {
        "name": "YouBike1.0_Chunglin Junior High School",
        "short_name": "wsqq9g7vj",
        "lon": 121.37134,
        "rental_methods": ["KEY", "CREDITCARD"],
        "lat": 25.06754,
        "station_id": "NWT1512",
        "capacity": 10
      },
      {
        "name": "YouBike1.0_Bihua Park(Jiyong Rd.)",
        "short_name": "wsqqsqrjf",
        "lon": 121.48554,
        "rental_methods": ["KEY", "CREDITCARD"],
        "lat": 25.08415,
        "station_id": "NWT1513",
        "capacity": 10
      },
      {
        "name": "YouBike1.0_Ln. 19, Sec. 2, Daguan Rd.",
        "short_name": "wsqq5xtf2",
        "lon": 121.45079,
        "rental_methods": ["KEY", "CREDITCARD"],
        "lat": 25.00256,
        "station_id": "NWT1515",
        "capacity": 10
      },
      {
        "name": "YouBike1.0_Sec. 1, Chengtai Rd. (CPC)",
        "short_name": "wsqqem6sr",
        "lon": 121.43565,
        "rental_methods": ["KEY", "CREDITCARD"],
        "lat": 25.07843,
        "station_id": "NWT1516",
        "capacity": 10
      },
      {
        "name": "YouBike1.0_Qinghe Village(Qingyun Rd.)",
        "short_name": "wsqq5fed9",
        "lon": 121.45874,
        "rental_methods": ["KEY", "CREDITCARD"],
        "lat": 24.97512,
        "station_id": "NWT1517",
        "capacity": 10
      },
      {
        "name": "YouBike1.0_Sichuan & Zhongxiao Intersection",
        "short_name": "wsqq5z7uj",
        "lon": 121.45924,
        "rental_methods": ["KEY", "CREDITCARD"],
        "lat": 25.00149,
        "station_id": "NWT1607",
        "capacity": 10
      },
      {
        "name": "YouBike1.0_Luguan Public Housing Complex",
        "short_name": "wsqqepr0y",
        "lon": 121.43079,
        "rental_methods": ["KEY", "CREDITCARD"],
        "lat": 25.08881,
        "station_id": "NWT1608",
        "capacity": 10
      },
      {
        "name": "YouBike1.0_Zhongshan & Xinxing Intersection",
        "short_name": "wsqq4d8cy",
        "lon": 121.40023,
        "rental_methods": ["KEY", "CREDITCARD"],
        "lat": 24.97499,
        "station_id": "NWT1610",
        "capacity": 10
      },
      {
        "name": "YouBike1.0_Xinyi Park Civic Activity Center",
        "short_name": "wsqq5vdeh",
        "lon": 121.4575,
        "rental_methods": ["KEY", "CREDITCARD"],
        "lat": 24.9917,
        "station_id": "NWT1611",
        "capacity": 10
      },
      {
        "name": "YouBike1.0_Wenzhongxiao Parking Lot",
        "short_name": "wsqqs3ugh",
        "lon": 121.48255,
        "rental_methods": ["KEY", "CREDITCARD"],
        "lat": 25.05899,
        "station_id": "NWT1612",
        "capacity": 10
      },
      {
        "name": "YouBike1.0_Ln. 1, Yushi Rd.",
        "short_name": "wsqqerx63",
        "lon": 121.44192,
        "rental_methods": ["KEY", "CREDITCARD"],
        "lat": 25.09044,
        "station_id": "NWT1615",
        "capacity": 10
      },
      {
        "name": "YouBike1.0_Minsheng & Zhongshan Intersection",
        "short_name": "wsqqk4n30",
        "lon": 121.47346,
        "rental_methods": ["KEY", "CREDITCARD"],
        "lat": 25.01606,
        "station_id": "NWT1619",
        "capacity": 10
      },
      {
        "name": "YouBike1.0_Yingge Civil Sports Center",
        "short_name": "wsqmcw600",
        "lon": 121.35775,
        "rental_methods": ["KEY", "CREDITCARD"],
        "lat": 24.95134,
        "station_id": "NWT1622",
        "capacity": 10
      },
      {
        "name": "YouBike1.0_Nanya Park",
        "short_name": "wsqq5zbfn",
        "lon": 121.45516,
        "rental_methods": ["KEY", "CREDITCARD"],
        "lat": 25.00387,
        "station_id": "NWT1623",
        "capacity": 10
      },
      {
        "name": "YouBike1.0_MRT Xinpu Sta.(Exit.1)",
        "short_name": "wsqqk53uk",
        "lon": 121.46745,
        "rental_methods": ["KEY", "CREDITCARD"],
        "lat": 25.0235,
        "station_id": "NWT1625",
        "capacity": 10
      },
      {
        "name": "YouBike1.0_Tucheng Renai Park",
        "short_name": "wsqq5gscm",
        "lon": 121.46062,
        "rental_methods": ["KEY", "CREDITCARD"],
        "lat": 24.98039,
        "station_id": "NWT1627",
        "capacity": 10
      },
      {
        "name": "YouBike1.0_DaKan Elementary School",
        "short_name": "wsqr4uqgk",
        "lon": 121.41938,
        "rental_methods": ["KEY", "CREDITCARD"],
        "lat": 25.16064,
        "station_id": "NWT1629",
        "capacity": 10
      },
      {
        "name": "YouBike1.0_Tung Hai Senior High School",
        "short_name": "wsqqs6ft7",
        "lon": 121.47942,
        "rental_methods": ["KEY", "CREDITCARD"],
        "lat": 25.06484,
        "station_id": "NWT1630",
        "capacity": 10
      },
      {
        "name": "YouBike1.0_Zhongshan No. 1 Technology Headquarters",
        "short_name": "wsqmfzct5",
        "lon": 121.41212,
        "rental_methods": ["KEY", "CREDITCARD"],
        "lat": 24.96045,
        "station_id": "NWT1631",
        "capacity": 10
      },
      {
        "name": "YouBike1.0_Ln. 70, Ren\u2019ai St.",
        "short_name": "wsqqu0hxj",
        "lon": 121.47126,
        "rental_methods": ["KEY", "CREDITCARD"],
        "lat": 25.09398,
        "station_id": "NWT1633",
        "capacity": 10
      },
      {
        "name": "YouBike1.0_Jianhua New Village",
        "short_name": "wsqqk487f",
        "lon": 121.4653,
        "rental_methods": ["KEY", "CREDITCARD"],
        "lat": 25.01927,
        "station_id": "NWT1636",
        "capacity": 10
      },
      {
        "name": "YouBike1.0_TBI MOTION Technology Company",
        "short_name": "wsqq6bed4",
        "lon": 121.41481,
        "rental_methods": ["KEY", "CREDITCARD"],
        "lat": 25.00801,
        "station_id": "NWT1640",
        "capacity": 10
      },
      {
        "name": "YouBike1.0_Fuxing & Minsheng St. Intersection",
        "short_name": "wsqmcgtk9",
        "lon": 121.37324,
        "rental_methods": ["KEY", "CREDITCARD"],
        "lat": 24.93701,
        "station_id": "NWT1642",
        "capacity": 10
      },
      {
        "name": "YouBike1.0_Huanhe W. & Dahan Intersection",
        "short_name": "wsqq7uvkg",
        "lon": 121.4612,
        "rental_methods": ["KEY", "CREDITCARD"],
        "lat": 25.03183,
        "station_id": "NWT1643",
        "capacity": 10
      },
      {
        "name": "YouBike1.0_Shihsanhang Museum of Archaeology",
        "short_name": "wsqr4etjf",
        "lon": 121.40588,
        "rental_methods": ["KEY", "CREDITCARD"],
        "lat": 25.15697,
        "station_id": "NWT1644",
        "capacity": 10
      },
      {
        "name": "YouBike1.0_Juguang Elementary School",
        "short_name": "wsqqk5z0u",
        "lon": 121.47465,
        "rental_methods": ["KEY", "CREDITCARD"],
        "lat": 25.02565,
        "station_id": "NWT1645",
        "capacity": 10
      },
      {
        "name": "YouBike1.0_Linkou Post Office",
        "short_name": "wsqq9enzy",
        "lon": 121.36453,
        "rental_methods": ["KEY", "CREDITCARD"],
        "lat": 25.06667,
        "station_id": "NWT1646",
        "capacity": 10
      },
      {
        "name": "YouBike1.0_Zhulinshan Guanyin Temple",
        "short_name": "wsqqdq3ru",
        "lon": 121.38983,
        "rental_methods": ["KEY", "CREDITCARD"],
        "lat": 25.08452,
        "station_id": "NWT1647",
        "capacity": 10
      },
      {
        "name": "YouBike1.0_Banqiao Zhongshan Park",
        "short_name": "wsqqk5ke9",
        "lon": 121.47109,
        "rental_methods": ["KEY", "CREDITCARD"],
        "lat": 25.02336,
        "station_id": "NWT1652",
        "capacity": 10
      },
      {
        "name": "YouBike1.0_Ln. 112, Renhua St.",
        "short_name": "wsqqsstze",
        "lon": 121.49488,
        "rental_methods": ["KEY", "CREDITCARD"],
        "lat": 25.07486,
        "station_id": "NWT1654",
        "capacity": 10
      },
      {
        "name": "YouBike1.0_Zhongxing Bridge(Ln. 254, Huanhe S. Rd.)",
        "short_name": "wsqqs873f",
        "lon": 121.49138,
        "rental_methods": ["KEY", "CREDITCARD"],
        "lat": 25.05052,
        "station_id": "NWT1657",
        "capacity": 10
      },
      {
        "name": "YouBike1.0_Xinlin Elementary School",
        "short_name": "wsqq9egs7",
        "lon": 121.35995,
        "rental_methods": ["KEY", "CREDITCARD"],
        "lat": 25.07016,
        "station_id": "NWT1658",
        "capacity": 10
      },
      {
        "name": "YouBike1.0_Zhongxin Elementary School",
        "short_name": "wsqqe9kbh",
        "lon": 121.44957,
        "rental_methods": ["KEY", "CREDITCARD"],
        "lat": 25.05572,
        "station_id": "NWT1663",
        "capacity": 10
      },
      {
        "name": "YouBike1.0_MRT Banxin Station",
        "short_name": "wsqqk1stt",
        "lon": 121.47124,
        "rental_methods": ["KEY", "CREDITCARD"],
        "lat": 25.01409,
        "station_id": "NWT1664",
        "capacity": 10
      },
      {
        "name": "YouBike1.0_Sanbaozhu",
        "short_name": "wsqq5qygt",
        "lon": 121.44139,
        "rental_methods": ["KEY", "CREDITCARD"],
        "lat": 24.99864,
        "station_id": "NWT1665",
        "capacity": 10
      },
      {
        "name": "YouBike1.0_Ci'ai Park",
        "short_name": "wsqqsmyks",
        "lon": 121.48461,
        "rental_methods": ["KEY", "CREDITCARD"],
        "lat": 25.08119,
        "station_id": "NWT1667",
        "capacity": 10
      },
      {
        "name": "YouBike1.0_Dingpu Market",
        "short_name": "wsqmfz7zb",
        "lon": 121.41508,
        "rental_methods": ["KEY", "CREDITCARD"],
        "lat": 24.95819,
        "station_id": "NWT1669",
        "capacity": 10
      },
      {
        "name": "YouBike1.0_Shulin Art & Administrative Center",
        "short_name": "wsqq5nmcp",
        "lon": 121.4291,
        "rental_methods": ["KEY", "CREDITCARD"],
        "lat": 24.99546,
        "station_id": "NWT1670",
        "capacity": 10
      },
      {
        "name": "YouBike1.0_Taipei Garden Community",
        "short_name": "wsqqe4g9n",
        "lon": 121.426,
        "rental_methods": ["KEY", "CREDITCARD"],
        "lat": 25.06414,
        "station_id": "NWT1672",
        "capacity": 10
      },
      {
        "name": "YouBike1.0_MRT Xinpu Station (Exit.5)",
        "short_name": "wsqqk56x2",
        "lon": 121.46828,
        "rental_methods": ["KEY", "CREDITCARD"],
        "lat": 25.02402,
        "station_id": "NWT1674",
        "capacity": 10
      },
      {
        "name": "YouBike1.0_Guozhong & Erjia Intersection",
        "short_name": "wsqmchh55",
        "lon": 121.33867,
        "rental_methods": ["KEY", "CREDITCARD"],
        "lat": 24.9395,
        "station_id": "NWT1676",
        "capacity": 10
      },
      {
        "name": "YouBike1.0_Fangzhou 8th Road",
        "short_name": "wsqqex68c",
        "lon": 121.44637,
        "rental_methods": ["KEY", "CREDITCARD"],
        "lat": 25.0888,
        "station_id": "NWT1679",
        "capacity": 10
      },
      {
        "name": "YouBike1.0_Houzhuwei Civil Activity Center",
        "short_name": "wsqqskr1x",
        "lon": 121.48576,
        "rental_methods": ["KEY", "CREDITCARD"],
        "lat": 25.07246,
        "station_id": "NWT1680",
        "capacity": 10
      },
      {
        "name": "YouBike1.0_Linkou Civil Sports Center",
        "short_name": "wsqqdnfbs",
        "lon": 121.38093,
        "rental_methods": ["KEY", "CREDITCARD"],
        "lat": 25.08601,
        "station_id": "NWT1681",
        "capacity": 10
      },
      {
        "name": "YouBike1.0_Ln. 292, Sec. 1, Zhongyang Rd. Intersection",
        "short_name": "wsqq5ebw6",
        "lon": 121.44368,
        "rental_methods": ["KEY", "CREDITCARD"],
        "lat": 24.98265,
        "station_id": "NWT1682",
        "capacity": 10
      },
      {
        "name": "YouBike1.0_Fengfu Park",
        "short_name": "wsqq0ftq5",
        "lon": 121.32938,
        "rental_methods": ["KEY", "CREDITCARD"],
        "lat": 24.97572,
        "station_id": "NWT1688",
        "capacity": 10
      },
      {
        "name": "YouBike1.0_Starup Terrace",
        "short_name": "wsqq9uzm7",
        "lon": 121.37609,
        "rental_methods": ["KEY", "CREDITCARD"],
        "lat": 25.07583,
        "station_id": "NWT1689",
        "capacity": 10
      },
      {
        "name": "YouBike1.0_Far East Power Corporate Headquarters",
        "short_name": "wsqq7hy8g",
        "lon": 121.42999,
        "rental_methods": ["KEY", "CREDITCARD"],
        "lat": 25.03113,
        "station_id": "NWT1691",
        "capacity": 10
      },
      {
        "name": "YouBike1.0_Qing Shui Community Park",
        "short_name": "wsqq5unw6",
        "lon": 121.46289,
        "rental_methods": ["KEY", "CREDITCARD"],
        "lat": 24.984,
        "station_id": "NWT1692",
        "capacity": 10
      },
      {
        "name": "YouBike1.0_NTNU Linkou Campus (Test Station)",
        "short_name": "wsqqd7rrc",
        "lon": 121.39795,
        "rental_methods": ["KEY", "CREDITCARD"],
        "lat": 25.06804,
        "station_id": "NWT1693",
        "capacity": 10
      },
      {
        "name": "YouBike1.0_Zhanlongshan Archaeological Park",
        "short_name": "wsqq5dge1",
        "lon": 121.44775,
        "rental_methods": ["KEY", "CREDITCARD"],
        "lat": 24.97657,
        "station_id": "NWT1694",
        "capacity": 10
      },
      {
        "name": "YouBike1.0_San-Chung Commercial and Industrial Vocational High School(Houzhuwei St.)",
        "short_name": "wsqqs7fv5",
        "lon": 121.47976,
        "rental_methods": ["KEY", "CREDITCARD"],
        "lat": 25.07031,
        "station_id": "NWT1696",
        "capacity": 10
      },
      {
        "name": "YouBike1.0_Fuzhou Apartment(Heyi & He\u2019an 1st Intersection)",
        "short_name": "wsqq5wu4y",
        "lon": 121.44863,
        "rental_methods": ["KEY", "CREDITCARD"],
        "lat": 24.99849,
        "station_id": "NWT1698",
        "capacity": 10
      },
      {
        "name": "YouBike1.0_Zhongzheng & Fuhai Intersection",
        "short_name": "wsqq7t3mp",
        "lon": 121.44489,
        "rental_methods": ["KEY", "CREDITCARD"],
        "lat": 25.03459,
        "station_id": "NWT1699",
        "capacity": 10
      },
      {
        "name": "YouBike1.0_Ln. 22, Sec. 4, Chengtai Rd.",
        "short_name": "wsqqgfcd0",
        "lon": 121.45596,
        "rental_methods": ["KEY", "CREDITCARD"],
        "lat": 25.10826,
        "station_id": "NWT1702",
        "capacity": 10
      },
      {
        "name": "YouBike1.0_Junxing & Sanlong Intersection",
        "short_name": "wsqq6fnnc",
        "lon": 121.41821,
        "rental_methods": ["KEY", "CREDITCARD"],
        "lat": 25.01704,
        "station_id": "NWT1707",
        "capacity": 10
      },
      {
        "name": "YouBike1.0_Linkou Maternity and Child Park",
        "short_name": "wsqqdh22v",
        "lon": 121.37752,
        "rental_methods": ["KEY", "CREDITCARD"],
        "lat": 25.07231,
        "station_id": "NWT1710",
        "capacity": 10
      },
      {
        "name": "YouBike1.0_Gincheng & Yumin Intersection",
        "short_name": "wsqq5gb84",
        "lon": 121.45466,
        "rental_methods": ["KEY", "CREDITCARD"],
        "lat": 24.98156,
        "station_id": "NWT1711",
        "capacity": 10
      },
      {
        "name": "YouBike1.0_Hunan Civil Activity Center",
        "short_name": "wsqq9yqn1",
        "lon": 121.37428,
        "rental_methods": ["KEY", "CREDITCARD"],
        "lat": 25.08423,
        "station_id": "NWT1712",
        "capacity": 10
      },
      {
        "name": "YouBike1.0_Piqian Park",
        "short_name": "wsqqk5qg6",
        "lon": 121.47422,
        "rental_methods": ["KEY", "CREDITCARD"],
        "lat": 25.02332,
        "station_id": "NWT1713",
        "capacity": 10
      },
      {
        "name": "YouBike1.0_MRT Xinpu Minsheng Station",
        "short_name": "wsqqk5c6b",
        "lon": 121.466567,
        "rental_methods": ["KEY", "CREDITCARD"],
        "lat": 25.025979,
        "station_id": "NWT1717",
        "capacity": 10
      },
      {
        "name": "YouBike1.0_Aly. 1, Ln. 182,  Wenhua Rd.",
        "short_name": "wsqqkhmtb",
        "lon": 121.472405,
        "rental_methods": ["KEY", "CREDITCARD"],
        "lat": 25.029258,
        "station_id": "NWT1720",
        "capacity": 10
      },
      {
        "name": "YouBike1.0_Lin Jian Sheng Memorial Library",
        "short_name": "wsqqsp5wt",
        "lon": 121.469879,
        "rental_methods": ["KEY", "CREDITCARD"],
        "lat": 25.088434,
        "station_id": "NWT1723",
        "capacity": 10
      },
      {
        "name": "YouBike1.0_Sanxia Junior High School",
        "short_name": "wsqmcgfrx",
        "lon": 121.369399,
        "rental_methods": ["KEY", "CREDITCARD"],
        "lat": 24.938882,
        "station_id": "NWT1725",
        "capacity": 10
      },